[{"Longitude":-92.875,"Latitude":42.953,"Name":"Ackley Creek County Park","Phone":"641.756.3490","State":"IA","City":"Marble Rock"},
    {"Longitude":-93.724,"Latitude":41.738,"Name":"Acorn Valley - Saylorville Lake","Phone":"515.276.0429","State":"IA","City":"Des Moines"},
    {"Longitude":-94.643,"Latitude":41.498,"Name":"Adair City Park","Phone":"641.742.3751","State":"IA","City":"Adair"},
    {"Longitude":-92.21,"Latitude":43.12,"Name":"Adolph Munson Park","Phone":" ","State":"IA","City":"New Hampton"},
    {"Longitude":-92.348,"Latitude":43.09,"Name":"Airport Lake Park","Phone":" ","State":"IA","City":"New Hampton"},
    {"Longitude":-96.556,"Latitude":42.832,"Name":"Akron City Park","Phone":" ","State":"IA","City":"Akron"},
    {"Longitude":-94.926,"Latitude":41.711,"Name":"Albert the Bull CG","Phone":"712.563.3856","State":"IA","City":"Audubon"},
    {"Longitude":-92.313,"Latitude":42.88,"Name":"Alcock Park","Phone":"319.882.4742","State":"IA","City":"Frederika"},
    {"Longitude":-96.005,"Latitude":42.998,"Name":"Alton Roadside Park","Phone":" ","State":"IA","City":"Alton"},
    {"Longitude":-94.247,"Latitude":43.052,"Name":"Ambrose Call State Park","Phone":"515.295.3669","State":"IA","City":"Algona"},
    {"Longitude":-93.609,"Latitude":42.026,"Name":"Ames Bandshell City Park","Phone":" ","State":"IA","City":"Ames"},
    {"Longitude":-95.131,"Latitude":43.366,"Name":"Arnolds Park City Park","Phone":"712.332.2341","State":"IA","City":"Arnolds Park"},
    {"Longitude":-95.59,"Latitude":41.432,"Name":"Arrowhead Park","Phone":"712.485.2295","State":"IA","City":"Neola"},
    {"Longitude":-93.289,"Latitude":41.814,"Name":"Ashton Wildwood Park","Phone":" ","State":"IA","City":"Baxter"},
    {"Longitude":-91.968,"Latitude":40.768,"Name":"Austin County Park","Phone":" ","State":"IA","City":"Keosauqua"},
    {"Longitude":-91.56,"Latitude":42.616,"Name":"Backbone State Park","Phone":"563.924.2527","State":"IA","City":"Dundee"},
    {"Longitude":-91.411,"Latitude":42.447,"Name":"Baileys Ford","Phone":"563.927.3410","State":"IA","City":"Manchester."},
    {"Longitude":-90.953,"Latitude":42.56,"Name":"Bankston Park","Phone":"563.556.6745","State":"IA","City":"Holy Cross"},
    {"Longitude":-92.787,"Latitude":42.583,"Name":"Beaver Meadows Co Park","Phone":"319.278.4237","State":"IA","City":"Parkersburg"},
    {"Longitude":-93.236,"Latitude":42.768,"Name":"Beeds Lake State Park","Phone":"641.456.2047","State":"IA","City":"Hampton"},
    {"Longitude":-90.423,"Latitude":42.247,"Name":"Bellevue State Park","Phone":"563.872.4019","State":"IA","City":"Bellevue"},
    {"Longitude":-93.889,"Latitude":42.34,"Name":"Bells Mills County Park","Phone":"515.832.9570","State":"IA","City":"Stratford"},
    {"Longitude":-92.151,"Latitude":41.386,"Name":"Belva - Deer Rec Area","Phone":"641.622.3757","State":"IA","City":"Sigourney"},
    {"Longitude":-90.922,"Latitude":41.746,"Name":"Bennett Park","Phone":"563.886.6930","State":"IA","City":"Bennett"},
    {"Longitude":-91.918,"Latitude":42.162,"Name":"Benton City  -  Fry Area","Phone":"319.472.3318","State":"IA","City":"Vinton"},
    {"Longitude":-91.852,"Latitude":40.725,"Name":"Bentonsport","Phone":"319.293.3589","State":"IA","City":"Bentonsport"},
    {"Longitude":-93.386,"Latitude":42.526,"Name":"Bessman-Kemp Co Park","Phone":" ","State":"IA","City":"Alden"},
    {"Longitude":-91.226,"Latitude":40.952,"Name":"Big Hollow Creek Park","Phone":"319.753.8260","State":"IA","City":"Pleasant Grove"},
    {"Longitude":-92.434,"Latitude":42.556,"Name":"Big Woods Lake","Phone":"319.266.6813","State":"IA","City":"Cedar Falls"},
    {"Longitude":-96.326,"Latitude":42.306,"Name":"Bigelow County Park","Phone":"712.946.7114","State":"IA","City":"Salix"},
    {"Longitude":-92.478,"Latitude":42.563,"Name":"Black Hawk County Park","Phone":"319.433.7275","State":"IA","City":"Cedar Falls"},
    {"Longitude":-95.017,"Latitude":42.292,"Name":"Black Hawk State Park","Phone":"712.657.8712","State":"IA","City":"Lake View"},
    {"Longitude":-91.212,"Latitude":43.044,"Name":"Bloody Run County Park","Phone":"563.245.1516","State":"IA","City":"Marquette"},
    {"Longitude":-93.685,"Latitude":41.701,"Name":"Bob Shetler - Saylorville Lake","Phone":"515.276.0873","State":"IA","City":"Des Moines"},
    {"Longitude":-93.398,"Latitude":40.708,"Name":"Bobwhite State Park","Phone":"641.873.4670","State":"IA","City":"Allerton"},
    {"Longitude":-95.363,"Latitude":41.396,"Name":"Botna Bend County Park","Phone":"712.741.5465","State":"IA","City":"Hancock"},
    {"Longitude":-93.04,"Latitude":42.236,"Name":"Brekke Memorial Park","Phone":" ","State":"IA","City":"Union"},
    {"Longitude":-93.012,"Latitude":40.876,"Name":"Bridgeview - Rathbun Lake","Phone":"641.724.3062","State":"IA","City":"Moravia"},
    {"Longitude":-93.802,"Latitude":42.432,"Name":"Briggs Woods Park","Phone":"515.832.9570","State":"IA","City":"Webster City"},
    {"Longitude":-91.85,"Latitude":41.224,"Name":"Brinton Timber","Phone":" ","State":"IA","City":"Brighton"},
    {"Longitude":-96.326,"Latitude":42.306,"Name":"Browns Lake  -  Bigelow Park","Phone":"712.946.7114","State":"IA","City":"Salix"},
    {"Longitude":-96.326,"Latitude":42.306,"Name":"Browns Lake Bigelow Park","Phone":"712.946.7114","State":"IA","City":"Salix"},
    {"Longitude":-93.983,"Latitude":42.394,"Name":"Brushy Creek  State Rec Area","Phone":"515.543.8298","State":"IA","City":"Lehigh"},
    {"Longitude":-92.869,"Latitude":40.85,"Name":"Buck Creek - Rathbun Lake","Phone":"641.724.3206","State":"IA","City":"Moravia"},
    {"Longitude":-91.209,"Latitude":42.879,"Name":"Buck Creek County Park","Phone":" ","State":"IA","City":""},
    {"Longitude":-95.338,"Latitude":42.884,"Name":"Buena Vista Co Park","Phone":"712.295.7985","State":"IA","City":"Linn Grove"},
    {"Longitude":-91.687,"Latitude":42.471,"Name":"Buffalo Creek Area","Phone":" ","State":"IA","City":"Winthrop"},
    {"Longitude":-91.542,"Latitude":42.287,"Name":"Buffalo Creek County Park","Phone":"319.892.6450","State":"IA","City":"Coggon"},
    {"Longitude":-90.745,"Latitude":41.454,"Name":"Buffalo Shores County Park","Phone":"563.328.3281","State":"IA","City":"Buffalo"},
    {"Longitude":-90.182,"Latitude":41.935,"Name":"Bulgers Hollow - Mississippi River","Phone":"815.259.3628","State":"IA","City":"Clinton"},
    {"Longitude":-96.319,"Latitude":42.637,"Name":"Bur Oak - Hillview County Rec Area","Phone":" ","State":"IA","City":"Hinton"},
    {"Longitude":-94.401,"Latitude":43.488,"Name":"Burt Lake County Park","Phone":"515.295.2138","State":"IA","City":"Swea City"},
    {"Longitude":-92.761,"Latitude":42.844,"Name":"Camp Comfort ","Phone":" ","State":"IA","City":"Greene"},
    {"Longitude":-95.043,"Latitude":42.308,"Name":"Camp Crescent Park","Phone":"712.657.2189","State":"IA","City":"Lake View"},
    {"Longitude":-91.014,"Latitude":41.162,"Name":"Cappy Russell Access","Phone":" ","State":"IA","City":"Oakville"},
    {"Longitude":-95.424,"Latitude":41.237,"Name":"Carson City Park","Phone":" ","State":"IA","City":"Carson"},
    {"Longitude":-94.517,"Latitude":41.509,"Name":"Casey City Park - Abram Rutt","Phone":"641.746.3315","State":"IA","City":"Casey"},
    {"Longitude":-92.494,"Latitude":42.76,"Name":"Cedar Bend Park","Phone":" ","State":"IA","City":"Waverly"},
    {"Longitude":-92.855,"Latitude":43.283,"Name":"Cedar Bridge County Park","Phone":" ","State":"IA","City":"Osage"},
    {"Longitude":-92.859,"Latitude":41.258,"Name":"Cedar Creek Access","Phone":" ","State":"IA","City":"Oskaloosa"},
    {"Longitude":-91.235,"Latitude":41.721,"Name":"Cedar Valley Co Park","Phone":" ","State":"IA","City":"Cedar Bluffs"},
    {"Longitude":-92.548,"Latitude":42.959,"Name":"Cedar View Park","Phone":"641.435.4156","State":"IA","City":"Nashua"},
    {"Longitude":-91.138,"Latitude":42.11,"Name":"Central Park","Phone":"563.487.3541","State":"IA","City":"Center Junctio"},
    {"Longitude":-92.206,"Latitude":41.303,"Name":"Chacauqua River Access","Phone":" ","State":"IA","City":"Sigourney"},
    {"Longitude":-95.557,"Latitude":42.738,"Name":"Cherokee City Park","Phone":"712.225.5749","State":"IA","City":"Cherokee"},
    {"Longitude":-93.68,"Latitude":41.732,"Name":"Cherry Glen - Saylorville Lake","Phone":"515.964.8792","State":"IA","City":"Des Moines"},
    {"Longitude":-93.429,"Latitude":41.791,"Name":"Chichaqua Bottoms Greenbelt","Phone":"515.967.2596","State":"IA","City":"Maxwell"},
    {"Longitude":-92.503,"Latitude":43.033,"Name":"Chickasaw Park","Phone":" ","State":"IA","City":"Ionia"},
    {"Longitude":-96.17,"Latitude":43.07,"Name":"Childrens Park","Phone":"712.722.0761","State":"IA","City":"Sioux Center"},
    {"Longitude":-91.939,"Latitude":43.423,"Name":"Chimney Rock County Park","Phone":" ","State":"IA","City":"Cresco"},
    {"Longitude":-93.499,"Latitude":40.863,"Name":"Cinder Path RV Park","Phone":"641.877.6841","State":"IA","City":"Humeston"},
    {"Longitude":-90.809,"Latitude":41.458,"Name":"Clarks Ferry - Mississippi River","Phone":"563.381.4043","State":"IA","City":"Muscatine"},
    {"Longitude":-93.389,"Latitude":43.111,"Name":"Clear Lake State Park","Phone":"641.357.4212","State":"IA","City":"Clear Lake"},
    {"Longitude":-95.476,"Latitude":42.351,"Name":"Cobb City Park","Phone":"712.364.2958","State":"IA","City":"Ida Grove"},
    {"Longitude":-95.136,"Latitude":41.255,"Name":"Cocklin Fish Farm","Phone":"712.769.2372","State":"IA","City":"Griswold"},
    {"Longitude":-91.534,"Latitude":42.494,"Name":"Coffins Grove","Phone":"563.927.3410","State":"IA","City":"Manchester."},
    {"Longitude":-95.084,"Latitude":41.291,"Name":"Cold Spring Park","Phone":"712.769.2372","State":"IA","City":"Lewis"},
    {"Longitude":-92.642,"Latitude":43.156,"Name":"Colwell County Park","Phone":"641.756.3490","State":"IA","City":"Colwell"},
    {"Longitude":-94.465,"Latitude":42.624,"Name":"Coopers Cove Co Park","Phone":" ","State":"IA","City":"Clare"},
    {"Longitude":-93.335,"Latitude":40.751,"Name":"Corydon Lake Co Park","Phone":" ","State":"IA","City":"Corydon"},
    {"Longitude":-91.53,"Latitude":41.723,"Name":"Cottonwood - Coralville Lake","Phone":"515.276.4656","State":"IA","City":"Iowa City"},
    {"Longitude":-95.601,"Latitude":42.275,"Name":"Crawford Creek County Rec Area","Phone":" ","State":"IA","City":"Battle Creek"},
    {"Longitude":-94.044,"Latitude":41.213,"Name":"Criss Cove County Park","Phone":" ","State":"IA","City":"Winterset."},
    {"Longitude":-93.19,"Latitude":42.478,"Name":"Cross Ford River Access","Phone":" ","State":"IA","City":"Iowa Falls"},
    {"Longitude":-93.783,"Latitude":43.23,"Name":"Crystal Lake Park","Phone":" ","State":"IA","City":"Crystal Lake"},
    {"Longitude":-92.063,"Latitude":42.544,"Name":"Cutshall Area","Phone":" ","State":"IA","City":"Jesup"},
    {"Longitude":-93.573,"Latitude":43.465,"Name":"Dahle Park","Phone":"641.565.3390","State":"IA","City":"Lake Mills"},
    {"Longitude":-93.043,"Latitude":42.249,"Name":"Daisy Long County Park","Phone":"641.648.4361","State":"IA","City":"Union"},
    {"Longitude":-93.292,"Latitude":42.171,"Name":"Dakins Lake County Park","Phone":"641.487.7477","State":"IA","City":"Zearing"},
    {"Longitude":-94.019,"Latitude":41.629,"Name":"Dallas County Fairgrounds","Phone":"515.993.4984","State":"IA","City":"Adel"},
    {"Longitude":-93.068,"Latitude":42.28,"Name":"David Bates Memorial Park","Phone":" ","State":"IA","City":"Union"},
    {"Longitude":-96.189,"Latitude":42.009,"Name":"Decatur Bend Access","Phone":" ","State":"IA","City":"Onawa"},
    {"Longitude":-90.47,"Latitude":41.96,"Name":"Deep Creek","Phone":"563.677.2710","State":"IA","City":"Charlotte"},
    {"Longitude":-96.325,"Latitude":42.643,"Name":"Deer Ridge - Hillview County Rec Area","Phone":" ","State":"IA","City":"Hinton"},
    {"Longitude":-92.303,"Latitude":42.462,"Name":"Deerwood City Park","Phone":"319.493.0655","State":"IA","City":"Waterloo"},
    {"Longitude":-95.338,"Latitude":41.826,"Name":"Defiance RV Park","Phone":"712 748.3431","State":"IA","City":"Defiance"},
    {"Longitude":-94.233,"Latitude":42.95,"Name":"Devine Wildlife Area","Phone":"515.295.2138","State":"IA","City":"Algona"},
    {"Longitude":-92.542,"Latitude":41.593,"Name":"Diamond Lake County Park","Phone":"641.623.3630","State":"IA","City":"Montezuma"},
    {"Longitude":-94.687,"Latitude":42.118,"Name":"Dickson Timber County Park","Phone":" ","State":"IA","City":"Glidden"},
    {"Longitude":-95.474,"Latitude":42.935,"Name":"Dog Creek Co Park","Phone":"712.295.7200","State":"IA","City":"Sutherland"},
    {"Longitude":-94.083,"Latitude":42.387,"Name":"Dolliver Memorial State Park","Phone":"515.359.2539","State":"IA","City":"Otho"},
    {"Longitude":-94.027,"Latitude":42.12,"Name":"Don Williams Park","Phone":"515.275.9906","State":"IA","City":"Ogden"},
    {"Longitude":-95.705,"Latitude":43.163,"Name":"Douma Co Park","Phone":"712.295.7200","State":"IA","City":"Sanborn"},
    {"Longitude":-92.046,"Latitude":42.741,"Name":"Downing County Park","Phone":"563.425.3613","State":"IA","City":"Westgate"},
    {"Longitude":-93.508,"Latitude":42.654,"Name":"Dows Pool Park","Phone":" ","State":"IA","City":"Dows"},
    {"Longitude":-92.479,"Latitude":40.802,"Name":"Drakesville City Park","Phone":"641.722.3859","State":"IA","City":"Bloomfield"},
    {"Longitude":-90.641,"Latitude":42.523,"Name":"Dubuque Yacht Basin and RV Park","Phone":"563.556.7708","State":"IA","City":"Dubuque"},
    {"Longitude":-91.771,"Latitude":42.996,"Name":"Duttons Cave Co Park","Phone":" ","State":"IA","City":"West Union"},
    {"Longitude":-93.146,"Latitude":42.472,"Name":"Eagle City County Park","Phone":" ","State":"IA","City":"Iowa Falls"},
    {"Longitude":-93.744,"Latitude":41.033,"Name":"East Lake Co Park","Phone":"641.342.3960","State":"IA","City":"Osceola"},
    {"Longitude":-95.138,"Latitude":43.134,"Name":"East Leach City Park","Phone":"712.264.7265","State":"IA","City":"Spencer"},
    {"Longitude":-90.855,"Latitude":42.047,"Name":"Eden Valley Park","Phone":"563.847.7202","State":"IA","City":"Baldwin"},
    {"Longitude":-91.551,"Latitude":41.68,"Name":"Edgewater City Park","Phone":"319.466.7605","State":"IA","City":"Iowa City"},
    {"Longitude":-91.399,"Latitude":42.645,"Name":"Edgewood Campground","Phone":"563.928.6613","State":"IA","City":"Edgewood"},
    {"Longitude":-94.669,"Latitude":42.739,"Name":"Elbert Park","Phone":"712.335.4841","State":"IA","City":"Pocahontas"},
    {"Longitude":-93.56,"Latitude":42.941,"Name":"Eldred Sherwood Park","Phone":"641.923.2720","State":"IA","City":"Goodell"},
    {"Longitude":-93.086,"Latitude":41.399,"Name":"Elk Rock State Park","Phone":"641.842.6008","State":"IA","City":"Sweetwater"},
    {"Longitude":-91.398,"Latitude":42.852,"Name":"Elkader City Park","Phone":"563.245.2098","State":"IA","City":"Elkader"},
    {"Longitude":-95.09,"Latitude":41.57,"Name":"Elkhorn Creek Rec Area","Phone":" ","State":"IA","City":"Elk Horn"},
    {"Longitude":-95.175,"Latitude":43.355,"Name":"Emerson Bay State Rec Area","Phone":"712.337.3211","State":"IA","City":"Milford"},
    {"Longitude":-92.734,"Latitude":41.235,"Name":"Eveland Access","Phone":"641.673.9327","State":"IA","City":"Beacon"},
    {"Longitude":-91.725,"Latitude":41.733,"Name":"F. W. Kent County Park","Phone":"319.645.2315","State":"IA","City":"Tiffin"},
    {"Longitude":-90.924,"Latitude":41.433,"Name":"Fairport State Rec Area","Phone":"563.263.4337","State":"IA","City":"Muscatine"},
    {"Longitude":-94.628,"Latitude":42.495,"Name":"Featherstone County Park","Phone":"712.297.7131","State":"IA","City":"Rockwell City"},
    {"Longitude":-91.008,"Latitude":41.162,"Name":"Ferry Landing","Phone":"563.263.7913","State":"IA","City":"Muscatine"},
    {"Longitude":-94.24,"Latitude":40.737,"Name":"Fifes Grove Co Park","Phone":"641.464.2787","State":"IA","City":"Mount Ayr"},
    {"Longitude":-90.908,"Latitude":42.324,"Name":"Fillmore County Rec Area","Phone":"563.556.6745","State":"IA","City":"Fillmore"},
    {"Longitude":-90.806,"Latitude":42.654,"Name":"Finleys Landing City Park","Phone":"563.552.1571","State":"IA","City":"Dubuque"},
    {"Longitude":-91.118,"Latitude":41.27,"Name":"Flaming Prairie Park","Phone":"319.523.8381","State":"IA","City":"Grandview"},
    {"Longitude":-91.908,"Latitude":42.604,"Name":"Fontana County Park","Phone":"319.636.2617","State":"IA","City":"Independence"},
    {"Longitude":-93.046,"Latitude":42.158,"Name":"Forest Reserve - Marshalltown","Phone":"641.752.5490","State":"IA","City":"Liscomb"},
    {"Longitude":-91.311,"Latitude":42.614,"Name":"Fountain Springs County Park","Phone":"563.927.3410","State":"IA","City":"Greeley"},
    {"Longitude":-90.968,"Latitude":41.063,"Name":"Fourth Pumping Plant Rec Area","Phone":"319.753.8260","State":"IA","City":"Kingston"},
    {"Longitude":-94.207,"Latitude":42.677,"Name":"Frank A Gotch Park","Phone":"515.332.4087","State":"IA","City":"Humboldt"},
    {"Longitude":-91.106,"Latitude":42.852,"Name":"Frenchtown County Park","Phone":"563.245.1516","State":"IA","City":"Guttenberg"},
    {"Longitude":-91.471,"Latitude":42.908,"Name":"Friedens County Park","Phone":"563.245.1516","State":"IA","City":"Elkader"},
    {"Longitude":-95.917,"Latitude":41.268,"Name":"Friendship City Park","Phone":" ","State":"IA","City":"Council Bluffs"},
    {"Longitude":-94.865,"Latitude":43.393,"Name":"Ft. Defiance State Park","Phone":"712.337.3211","State":"IA","City":"Estherville"},
    {"Longitude":-95.414,"Latitude":42.506,"Name":"Galva City Park","Phone":"712.371.9438","State":"IA","City":"Galva"},
    {"Longitude":-93.222,"Latitude":42.886,"Name":"Galvin Memorial Park","Phone":"641.892.4718","State":"IA","City":"Sheffield"},
    {"Longitude":-92.85,"Latitude":42.938,"Name":"Gates Bridge County Park","Phone":"641.756.3490","State":"IA","City":"Marble Rock"},
    {"Longitude":-91.383,"Latitude":40.824,"Name":"Geode State Park","Phone":"319.392.4601","State":"IA","City":"Danville"},
    {"Longitude":-92.946,"Latitude":43.054,"Name":"George Wyatt City Park","Phone":"641.756.3718","State":"IA","City":"Rockford"},
    {"Longitude":-92.396,"Latitude":42.536,"Name":"George Wyth State Park","Phone":"319.232.5505","State":"IA","City":"Cedar Falls"},
    {"Longitude":-91.632,"Latitude":42.959,"Name":"Gilbertson Conservation Education Area","Phone":"563.426.5740","State":"IA","City":"Elgin"},
    {"Longitude":-92.592,"Latitude":41.343,"Name":"Glendale Access","Phone":" ","State":"IA","City":"Oskaloosa"},
    {"Longitude":-95.734,"Latitude":41.048,"Name":"Glenwood Lake Park","Phone":"712.527.3509","State":"IA","City":"Glenwood"},
    {"Longitude":-91.837,"Latitude":43.041,"Name":"Goeken Co Park","Phone":" ","State":"IA","City":"West Union"},
    {"Longitude":-94.689,"Latitude":42.551,"Name":"Gordon Prange City Park","Phone":"712.468.2411","State":"IA","City":"Pomeroy"},
    {"Longitude":-91.957,"Latitude":43.009,"Name":"Gouldsburg County Park","Phone":"563.425.3613","State":"IA","City":"Hawkeye"},
    {"Longitude":-93.033,"Latitude":42.168,"Name":"Grammer Grove Wildlife Area","Phone":" ","State":"IA","City":"Liscomb"},
    {"Longitude":-94.893,"Latitude":42.264,"Name":"Grant County Park","Phone":"712.662.4530","State":"IA","City":"Auburn"},
    {"Longitude":-91.362,"Latitude":40.79,"Name":"Grays Landing","Phone":"319.376.2341","State":"IA","City":"Denmark"},
    {"Longitude":-95.081,"Latitude":41.9,"Name":"Great Western Co Park","Phone":"712.792.4614","State":"IA","City":"Manning"},
    {"Longitude":-94.383,"Latitude":41.115,"Name":"Green Valley State Park","Phone":"641.782.5131","State":"IA","City":"Creston"},
    {"Longitude":-92.802,"Latitude":42.893,"Name":"Greene Rec Area - Camp Comfort","Phone":"319.278.4237","State":"IA","City":"Greene"},
    {"Longitude":-95.165,"Latitude":43.371,"Name":"Gull Point State Park","Phone":"712.337.3211","State":"IA","City":"Milford"},
    {"Longitude":-94.967,"Latitude":40.984,"Name":"Hacklebarney Woods County Park","Phone":" ","State":"IA","City":"Villisca"},
    {"Longitude":-94.998,"Latitude":42.385,"Name":"Hagge County Park","Phone":"712.662.4530","State":"IA","City":"Sac City"},
    {"Longitude":-92.923,"Latitude":43.354,"Name":"Halvorson Park","Phone":"641.736.2221","State":"IA","City":"St. Ansgar"},
    {"Longitude":-92.112,"Latitude":41.863,"Name":"Hannen County Park","Phone":"319.454.6382","State":"IA","City":"Blairstown"},
    {"Longitude":-92.411,"Latitude":43.119,"Name":"Haus Park","Phone":" ","State":"IA","City":"North Washingt"},
    {"Longitude":-96.488,"Latitude":43.003,"Name":"Hawarden City Park","Phone":" ","State":"IA","City":"Hawarden"},
    {"Longitude":-94.37,"Latitude":41.988,"Name":"Henderson Co Park","Phone":" ","State":"IA","City":"Jefferson"},
    {"Longitude":-93.353,"Latitude":41.99,"Name":"Hickory Grove County Park","Phone":"515.232.2516","State":"IA","City":"Nevada"},
    {"Longitude":-92.311,"Latitude":42.27,"Name":"Hickory Hills Park -  La Porte City","Phone":"319.342.3350","State":"IA","City":"La Porte City"},
    {"Longitude":-93.609,"Latitude":41.18,"Name":"Hickory Hills Park - New Virginia","Phone":"515.961.6169","State":"IA","City":"New Virgiinia"},
    {"Longitude":-91.521,"Latitude":41.555,"Name":"Hills Access","Phone":"319.645.2315","State":"IA","City":"Hills"},
    {"Longitude":-95.853,"Latitude":43.191,"Name":"Hills Park - Sheldon","Phone":"712.324.2769","State":"IA","City":"Sheldon"},
    {"Longitude":-96.319,"Latitude":42.637,"Name":"Hillview County Rec Area","Phone":" ","State":"IA","City":"Hinton"},
    {"Longitude":-95.857,"Latitude":41.413,"Name":"Hitchcock County Nature Center","Phone":"712.328.5833","State":"IA","City":"Honey Creek"},
    {"Longitude":-91.976,"Latitude":42.164,"Name":"Hoefle - Dulin Area County Park","Phone":" ","State":"IA","City":"Vinton"},
    {"Longitude":-91.311,"Latitude":42.614,"Name":"Holbert Park","Phone":" ","State":"IA","City":"Greeley"},
    {"Longitude":-92.928,"Latitude":40.861,"Name":"Honey Creek State Park","Phone":"641.724.3739","State":"IA","City":"Moravia"},
    {"Longitude":-93.997,"Latitude":40.943,"Name":"Hopeville Square Co Park","Phone":"641.342.3960","State":"IA","City":"Hopeville"},
    {"Longitude":-90.664,"Latitude":42.055,"Name":"Horseshoe Pond","Phone":"563.652.2484","State":"IA","City":"Maquoketa"},
    {"Longitude":-92.559,"Latitude":42.985,"Name":"Howards Woods","Phone":" ","State":"IA","City":"Nashua"},
    {"Longitude":-92.973,"Latitude":41.365,"Name":"Howell Station - Red Rock Lake","Phone":"641.828.7522","State":"IA","City":"Pella"},
    {"Longitude":-91.38,"Latitude":40.391,"Name":"Hubinger Landing Park","Phone":"319.524.7122","State":"IA","City":"Keokuk"},
    {"Longitude":-96.134,"Latitude":41.925,"Name":"Huff - Warner Access Area","Phone":" ","State":"IA","City":"Blencoe"},
    {"Longitude":-94.575,"Latitude":42.113,"Name":"Hyde Park","Phone":" ","State":"IA","City":"Scranton"},
    {"Longitude":-95.467,"Latitude":42.348,"Name":"Ida Grove City Park","Phone":"712.364.2428","State":"IA","City":"Ida Grove"},
    {"Longitude":-91.891,"Latitude":42.461,"Name":"Independence City RV Park","Phone":"319.334.6711","State":"IA","City":"Independence"},
    {"Longitude":-91.752,"Latitude":40.633,"Name":"Indian Lake Park","Phone":"319.878.3706","State":"IA","City":"Farmington"},
    {"Longitude":-91.236,"Latitude":40.724,"Name":"Indian Path Park","Phone":"319.463.7673","State":"IA","City":"Wever"},
    {"Longitude":-93.377,"Latitude":42.943,"Name":"Ingebretson County Park","Phone":"641.423.5309","State":"IA","City":"Thornton"},
    {"Longitude":-92.881,"Latitude":43.319,"Name":"Interstate Co Park","Phone":"641.732.5204","State":"IA","City":"Mitchell"},
    {"Longitude":-94.459,"Latitude":43.491,"Name":"Iowa Lake Co Campground","Phone":"712.867.4422","State":"IA","City":"Armstrong"},
    {"Longitude":-95.455,"Latitude":43.5,"Name":"Iowa Lake Co Park","Phone":"319.655.8466","State":"IA","City":"Harris"},
    {"Longitude":-93.617,"Latitude":42.846,"Name":"Iowa River RV Park","Phone":"641.444.3386","State":"IA","City":"Belmond"},
    {"Longitude":-93.551,"Latitude":41.599,"Name":"Iowa State Fairgrounds","Phone":"515.262.3111","State":"IA","City":"Des Moines"},
    {"Longitude":-96.171,"Latitude":43.436,"Name":"Island Park - Rock Rapids","Phone":" ","State":"IA","City":"Rock Rapids"},
    {"Longitude":-94.014,"Latitude":41.621,"Name":"Island Park Co Park","Phone":"515.993.4525","State":"IA","City":"Adel"},
    {"Longitude":-92.906,"Latitude":40.827,"Name":"Island View - Rathbun Lake","Phone":"641.647.2079","State":"IA","City":"Centerville"},
    {"Longitude":-92.981,"Latitude":41.368,"Name":"Ivans - Red Rock Lake","Phone":" ","State":"IA","City":"Pella"},
    {"Longitude":-91.741,"Latitude":42.599,"Name":"Jakway County Park","Phone":" ","State":"IA","City":"Aurora"},
    {"Longitude":-91.988,"Latitude":40.993,"Name":"Jefferson County Park","Phone":"641.472.4421","State":"IA","City":"Fairfield"},
    {"Longitude":-93.775,"Latitude":41.78,"Name":"Jester County Park","Phone":"515.323.5366","State":"IA","City":"Granger"},
    {"Longitude":-94.261,"Latitude":42.731,"Name":"Joe Sheldon County Park","Phone":"515.332.4087","State":"IA","City":"Humboldt"},
    {"Longitude":-90.751,"Latitude":42.079,"Name":"Joinerville County Park","Phone":"563.652.3783.","State":"IA","City":"Maquoketa"},
    {"Longitude":-91.597,"Latitude":42.677,"Name":"Joy Springs County Park","Phone":" ","State":"IA","City":"Strawberry Poi"},
    {"Longitude":-94.68,"Latitude":43.122,"Name":"Kearny Park","Phone":"712.852.4030","State":"IA","City":"Emmetsburg"},
    {"Longitude":-94.192,"Latitude":42.583,"Name":"Kennedy County Park","Phone":"515.576.4258","State":"IA","City":"Fort Dodge"},
    {"Longitude":-91.816,"Latitude":42.844,"Name":"Klocks Island Park","Phone":"563.425.4316","State":"IA","City":"Fayette"},
    {"Longitude":-94.339,"Latitude":40.792,"Name":"Kokesh Co Park","Phone":" ","State":"IA","City":"Diagonal"},
    {"Longitude":-95.554,"Latitude":42.704,"Name":"Koser Spring Lake Park","Phone":"712.225.2715","State":"IA","City":"Cherokee"},
    {"Longitude":-91.981,"Latitude":40.709,"Name":"Lacey - Keosauqua State Park","Phone":"319.293.3502","State":"IA","City":"Keosauqua"},
    {"Longitude":-93.583,"Latitude":41.296,"Name":"Lake Ahquabi State Park","Phone":"515.961.7101","State":"IA","City":"Indianola"},
    {"Longitude":-94.762,"Latitude":41.433,"Name":"Lake Anita State Park","Phone":"712.762.3564","State":"IA","City":"Anita"},
    {"Longitude":-94.711,"Latitude":41.003,"Name":"Lake Binder Co Park","Phone":"641.322.4230","State":"IA","City":"Corning"},
    {"Longitude":-92.917,"Latitude":42.716,"Name":"Lake Considine","Phone":" ","State":"IA","City":"Bristow"},
    {"Longitude":-93.692,"Latitude":42.793,"Name":"Lake Cornelia Park","Phone":"515.532.3185","State":"IA","City":"Clarion"},
    {"Longitude":-91.896,"Latitude":41.192,"Name":"Lake Darling State Park","Phone":"319.694.2323","State":"IA","City":"Brighton"},
    {"Longitude":-92.446,"Latitude":40.759,"Name":"Lake Fisher","Phone":"641.664.2260","State":"IA","City":"Bloomfield"},
    {"Longitude":-92.55,"Latitude":43.373,"Name":"Lake Hendricks Co Park","Phone":"641.985.2127","State":"IA","City":"Riceville"},
    {"Longitude":-94.735,"Latitude":41.056,"Name":"Lake Icaria Co Park","Phone":"641.322.4793","State":"IA","City":"Corning"},
    {"Longitude":-92.182,"Latitude":41.636,"Name":"Lake Iowa County Park","Phone":"319.655.8465","State":"IA","City":"Ladora"},
    {"Longitude":-92.541,"Latitude":41.29,"Name":"Lake Keomah State Park","Phone":"641.673.6975","State":"IA","City":"Oskaloosa"},
    {"Longitude":-91.577,"Latitude":41.798,"Name":"Lake Macbride State Park","Phone":"319.624.2200","State":"IA","City":"Solon"},
    {"Longitude":-95.854,"Latitude":41.197,"Name":"Lake Manawa State Park","Phone":"712.366.0220","State":"IA","City":"Council Bluffs"},
    {"Longitude":-91.911,"Latitude":43.173,"Name":"Lake Meyer County Park","Phone":"563.534.7145","State":"IA","City":"Calmar"},
    {"Longitude":-94.684,"Latitude":40.713,"Name":"Lake of Three Fires State Park","Phone":"712.523.2700","State":"IA","City":"Bedford"},
    {"Longitude":-94.437,"Latitude":41.2,"Name":"Lake Orient Rec Area","Phone":" ","State":"IA","City":"Orient"},
    {"Longitude":-96.465,"Latitude":43.386,"Name":"Lake Pahoja Rec Area","Phone":" ","State":"IA","City":"Inwood"},
    {"Longitude":-91.994,"Latitude":40.683,"Name":"Lake Sugema County Park","Phone":"319.293.3532","State":"IA","City":""},
    {"Longitude":-92.589,"Latitude":40.816,"Name":"Lake Wapello State Park","Phone":"641.722.3371","State":"IA","City":"Drakesville"},
    {"Longitude":-93.504,"Latitude":40.877,"Name":"Lakeside Co Park","Phone":" ","State":"IA","City":"Humeston"},
    {"Longitude":-95.388,"Latitude":42.73,"Name":"Larson Lake Co Park","Phone":" ","State":"IA","City":"Aurelia"},
    {"Longitude":-93.887,"Latitude":41.983,"Name":"Ledges State Park","Phone":"515.432.1852","State":"IA","City":"Boone"},
    {"Longitude":-95.23,"Latitude":41.023,"Name":"Legion City Park","Phone":" ","State":"IA","City":"Red Oak"},
    {"Longitude":-92.886,"Latitude":40.715,"Name":"Lelah Bradley Park","Phone":"641.856.8528","State":"IA","City":"Centerville"},
    {"Longitude":-94.57,"Latitude":41.687,"Name":"Lenon Mill Co Park","Phone":" ","State":"IA","City":"Panora"},
    {"Longitude":-96.162,"Latitude":42.027,"Name":"Lewis and Clark State Park","Phone":"712.423.2829","State":"IA","City":"Onawa"},
    {"Longitude":-92.279,"Latitude":43.466,"Name":"Lidtke Park","Phone":" ","State":"IA","City":"Lime Springs"},
    {"Longitude":-93.194,"Latitude":43.184,"Name":"Lime Creek Conservation Area - Mason City","Phone":"641.423.5309","State":"IA","City":"Mason City"},
    {"Longitude":-91.981,"Latitude":42.327,"Name":"Lime Creek Park - Brandon","Phone":"319.636.2617","State":"IA","City":"Brandon"},
    {"Longitude":-91.543,"Latitude":41.725,"Name":"Linder Point - Coralville Lake","Phone":"319.338.3543","State":"IA","City":"Iowa City"},
    {"Longitude":-93.196,"Latitude":42.979,"Name":"Linn Grove County Park","Phone":"641.423.5309","State":"IA","City":"Rockwell"},
    {"Longitude":-95.246,"Latitude":42.895,"Name":"Linn Grove Dam Co Park","Phone":"712.295.7985","State":"IA","City":"Linn Grove"},
    {"Longitude":-93.778,"Latitude":40.768,"Name":"Little River Rec Area","Phone":"641.446.7307","State":"IA","City":"Leon"},
    {"Longitude":-95.801,"Latitude":42.45,"Name":"Little Sioux Park","Phone":"712.372.4984","State":"IA","City":"Correctionvill"},
    {"Longitude":-93.639,"Latitude":42.277,"Name":"Little Wall Lake County Park","Phone":"515.832.9570","State":"IA","City":"Jewell"},
    {"Longitude":-94.785,"Latitude":41.556,"Name":"Littlefield Rec Area","Phone":" ","State":"IA","City":"Exira"},
    {"Longitude":-94.891,"Latitude":43.176,"Name":"Lost Island Huston Park","Phone":"712.837.4866","State":"IA","City":"Ruthven"},
    {"Longitude":-94.202,"Latitude":42.867,"Name":"Lotts Creek Co Park","Phone":"515.332.4087","State":"IA","City":"Dakota City"},
    {"Longitude":-91.356,"Latitude":41.278,"Name":"Louisa County Fairgrounds","Phone":" ","State":"IA","City":"Columbus Junct"},
    {"Longitude":-91.258,"Latitude":40.755,"Name":"Lower Augusta Skunk River Access","Phone":" ","State":"IA","City":"Augusta"},
    {"Longitude":-95.386,"Latitude":41.318,"Name":"Lyons Park","Phone":" ","State":"IA","City":"Oakland"},
    {"Longitude":-91.736,"Latitude":41.051,"Name":"Mac Coon Access","Phone":"641.472.4421","State":"IA","City":"Lockridge"},
    {"Longitude":-93.232,"Latitude":42.663,"Name":"Mallory Co Park","Phone":"641.456.4375","State":"IA","City":"Hampton"},
    {"Longitude":-92.108,"Latitude":41.239,"Name":"Manhattan Bridge Access","Phone":" ","State":"IA","City":"Ollie"},
    {"Longitude":-95.462,"Latitude":41.855,"Name":"Manteno Co Park","Phone":" ","State":"IA","City":"Defiance"},
    {"Longitude":-95.787,"Latitude":42.168,"Name":"Mapleton City","Phone":"712.881.1351","State":"IA","City":"Mapleton"},
    {"Longitude":-90.775,"Latitude":42.119,"Name":"Maquoketa Caves State Park","Phone":"563.652.5833","State":"IA","City":"Maquoketa"},
    {"Longitude":-95.125,"Latitude":43.469,"Name":"Marble Beach State Rec Area","Phone":"712.337.3211","State":"IA","City":"Spirit Lake"},
    {"Longitude":-93.183,"Latitude":43.158,"Name":"Margaret Macnider City Park","Phone":"641.421.3673","State":"IA","City":"Mason City"},
    {"Longitude":-93.119,"Latitude":41.316,"Name":"Marion County Park","Phone":"641.828.2213","State":"IA","City":"Knoxville"},
    {"Longitude":-92.963,"Latitude":41.782,"Name":"Mariposa Co Park","Phone":"641.792.9780","State":"IA","City":"Newton"},
    {"Longitude":-94.349,"Latitude":40.818,"Name":"Marlin Fogle Rec Area","Phone":"641.734.5491","State":"IA","City":"Diagonal"},
    {"Longitude":-91.579,"Latitude":41.287,"Name":"Marr Park","Phone":" ","State":"IA","City":"Ainsworth"},
    {"Longitude":-95.472,"Latitude":42.851,"Name":"Martin Area County Park","Phone":" ","State":"IA","City":"Larrabee"},
    {"Longitude":-90.587,"Latitude":42.43,"Name":"Massey Marina","Phone":"563.556.6745","State":"IA","City":"Dubuque"},
    {"Longitude":-91.382,"Latitude":42.132,"Name":"Matsell Bridge Natural Area","Phone":"319.892.6450","State":"IA","City":"Central City"},
    {"Longitude":-91.878,"Latitude":42.778,"Name":"Maynard City Park","Phone":"563.637.2269","State":"IA","City":"Maynard"},
    {"Longitude":-92.142,"Latitude":42.318,"Name":"McFarlane Park","Phone":"319.342.3844","State":"IA","City":"La Porte City"},
    {"Longitude":-92.393,"Latitude":40.75,"Name":"McGowen Rec Area","Phone":"641.664.2527","State":"IA","City":"Bloomfield"},
    {"Longitude":-93.452,"Latitude":43.127,"Name":"McIntosh Woods State Park","Phone":"641.829.3847","State":"IA","City":"Ventura"},
    {"Longitude":-94.382,"Latitude":41.052,"Name":"McKinley Park","Phone":"641.782.2000","State":"IA","City":"Creston"},
    {"Longitude":-94.414,"Latitude":41.525,"Name":"Menlo City Park","Phone":"641.524.2411","State":"IA","City":"Menlo"},
    {"Longitude":-94.621,"Latitude":42.907,"Name":"Meredith Co Park","Phone":" ","State":"IA","City":"Plover"},
    {"Longitude":-92.837,"Latitude":41.12,"Name":"Miami Lake Park","Phone":"641.946.8112","State":"IA","City":"Lovilia"},
    {"Longitude":-91.9,"Latitude":41.798,"Name":"Middle Amana Park","Phone":" ","State":"IA","City":"Middle Amana"},
    {"Longitude":-94.281,"Latitude":41.352,"Name":"Middle River Forest Area","Phone":" ","State":"IA","City":"Dexter"},
    {"Longitude":-91.547,"Latitude":40.952,"Name":"Midwest Old Threshers","Phone":"319.385.8937","State":"IA","City":"Mount Pleasant"},
    {"Longitude":-94.762,"Latitude":42.272,"Name":"Mike Macke Memorial Park","Phone":" ","State":"IA","City":"Lake City"},
    {"Longitude":-95.668,"Latitude":42.984,"Name":"Mill Creek Co Park","Phone":" ","State":"IA","City":"Paulina"},
    {"Longitude":-90.642,"Latitude":42.516,"Name":"Miller Riverview City Park","Phone":"563.589.4238","State":"IA","City":"Dubuque"},
    {"Longitude":-92.018,"Latitude":42.195,"Name":"Milroy Access","Phone":" ","State":"IA","City":"Vinton"},
    {"Longitude":-92.019,"Latitude":42.259,"Name":"Minne Estema Park","Phone":"563.472.3318","State":"IA","City":"Vinton"},
    {"Longitude":-95.129,"Latitude":43.365,"Name":"Minnewashta Lake","Phone":"712.332.2341","State":"IA","City":""},
    {"Longitude":-95.906,"Latitude":41.557,"Name":"Missouri Valley City Park","Phone":"712.642.3502","State":"IA","City":"Missouri Valle"},
    {"Longitude":-93.513,"Latitude":40.602,"Name":"Moore - Gosch Memorial Park","Phone":" ","State":"IA","City":"Lineville"},
    {"Longitude":-95.479,"Latitude":42.357,"Name":"Moorehead Pioneer County Park","Phone":"712.364.3300","State":"IA","City":"Ida Grove"},
    {"Longitude":-91.76,"Latitude":41.989,"Name":"Morgan Creek County Park","Phone":"319.396.2363","State":"IA","City":"Palo"},
    {"Longitude":-94.637,"Latitude":41.24,"Name":"Mormon Trail County Park","Phone":"641.743.6450","State":"IA","City":"Bridgewater"},
    {"Longitude":-91.8,"Latitude":40.888,"Name":"Morris County Park","Phone":"319.796.2148","State":"IA","City":"Stockport"},
    {"Longitude":-91.351,"Latitude":42.807,"Name":"Motor Mill Historic Site","Phone":"563.245.1516","State":"IA","City":"Motor"},
    {"Longitude":-90.706,"Latitude":42.616,"Name":"Mud Lake County Park","Phone":"563.552.2746","State":"IA","City":"Dubuque"},
    {"Longitude":-94.331,"Latitude":41.577,"Name":"Nations Bridge Co Park","Phone":"515.523.1789","State":"IA","City":"Stuart"},
    {"Longitude":-95.587,"Latitude":41.936,"Name":"Nelson Park","Phone":"712.263.2748","State":"IA","City":"Dow City"},
    {"Longitude":-92.303,"Latitude":43.058,"Name":"New Hampton City","Phone":"641.394.2758","State":"IA","City":"New Hampton"},
    {"Longitude":-91.124,"Latitude":42.536,"Name":"New Wine County Park","Phone":"563.921.3475","State":"IA","City":"Dyersville"},
    {"Longitude":-93.754,"Latitude":40.588,"Name":"Nine Eagles State Park","Phone":"641.442.2855","State":"IA","City":"Davis City"},
    {"Longitude":-95.323,"Latitude":41.568,"Name":"Nishna Bend Rec Area","Phone":" ","State":"IA","City":"Harlan"},
    {"Longitude":-94.985,"Latitude":40.761,"Name":"Nodaway Valley County Park","Phone":"712.542.3864","State":"IA","City":"Clarinda"},
    {"Longitude":-92.524,"Latitude":42.848,"Name":"North Cedar Park","Phone":"319.882.4742","State":"IA","City":"Plainfield"},
    {"Longitude":-92.971,"Latitude":41.378,"Name":"North Overlook - Red Rock Lake","Phone":"641.828.7522","State":"IA","City":"Pella"},
    {"Longitude":-92.088,"Latitude":42.866,"Name":"North Woods Park","Phone":"319.882.4742","State":"IA","City":"Sumner"},
    {"Longitude":-96.472,"Latitude":43.059,"Name":"Oak Grove Co Park","Phone":"712.552.1047","State":"IA","City":"Hawarden"},
    {"Longitude":-96.459,"Latitude":43.062,"Name":"Oak Grove County Park","Phone":"712.552.1047","State":"IA","City":"Hawarden"},
    {"Longitude":-94.069,"Latitude":42.256,"Name":"Oak Park - Dayton","Phone":"515.547.2711","State":"IA","City":"Dayton"},
    {"Longitude":-91.619,"Latitude":40.935,"Name":"Oakland Mills Park","Phone":"319.986.5067","State":"IA","City":"Oakland Mills"},
    {"Longitude":-93.264,"Latitude":43.481,"Name":"Ochee Yahola","Phone":"641.324.1524","State":"IA","City":"Northwood"},
    {"Longitude":-95.535,"Latitude":43.386,"Name":"Ocheyedan Pits Rec Area","Phone":" ","State":"IA","City":"Ocheyedan"},
    {"Longitude":-95.249,"Latitude":42.308,"Name":"Odebolt Memorial Walk RV Park","Phone":"712.668.2231","State":"IA","City":"Odebolt"},
    {"Longitude":-91.92,"Latitude":42.648,"Name":"Oelwein City Park","Phone":"319.283.5440","State":"IA","City":"Oelwein"},
    {"Longitude":-95.448,"Latitude":41.197,"Name":"Olde Towne Co Park","Phone":"712.741.5465","State":"IA","City":"Macedonia"},
    {"Longitude":-95.789,"Latitude":42.008,"Name":"Oldham Rec Area","Phone":" ","State":"IA","City":"Soldier"},
    {"Longitude":-95.122,"Latitude":43.125,"Name":"Oneota Little Sioux Access","Phone":" ","State":"IA","City":"Spencer"},
    {"Longitude":-92.854,"Latitude":43.276,"Name":"Osage Spring City Park","Phone":"319.283.5440","State":"IA","City":"Osage"},
    {"Longitude":-91.444,"Latitude":42.793,"Name":"Osborne Conservation Center","Phone":"563.245.1516","State":"IA","City":"Dyersville"},
    {"Longitude":-92.98,"Latitude":43.459,"Name":"Otranto Co Park","Phone":"641.732.5204","State":"IA","City":"Otranto"},
    {"Longitude":-93.532,"Latitude":41.246,"Name":"Otter Creek Co Park","Phone":"515.961.6169","State":"IA","City":"Indianola"},
    {"Longitude":-92.52,"Latitude":42.052,"Name":"Otter Creek Lake and Park","Phone":"641.484.2231","State":"IA","City":"Toldedo"},
    {"Longitude":-92.43,"Latitude":41.01,"Name":"Ottumwa City Park","Phone":"641.682.7873","State":"IA","City":"Ottumwa"},
    {"Longitude":-91.508,"Latitude":41.909,"Name":"Palisades Kepler State Park","Phone":"319.895.6039","State":"IA","City":"Mt.Vernon"},
    {"Longitude":-94.076,"Latitude":41.292,"Name":"Pammel County Park","Phone":"515.462.3536","State":"IA","City":"Winterset"},
    {"Longitude":-90.687,"Latitude":41.52,"Name":"Park Terrace - West Lake County Park","Phone":" ","State":"IA","City":"Davenport"},
    {"Longitude":-94.11,"Latitude":41.835,"Name":"Pattee Park","Phone":"515.465.4958","State":"IA","City":"Perry"},
    {"Longitude":-95.943,"Latitude":42.2,"Name":"Peters Park - Rodney Pits Rec Area","Phone":" ","State":"IA","City":"Rodney"},
    {"Longitude":-91.106,"Latitude":42.209,"Name":"Pictured Rocks Co Park","Phone":" ","State":"IA","City":"Monticello"},
    {"Longitude":-95.355,"Latitude":40.843,"Name":"Pierce Creek Rec Area","Phone":"712.542.3864","State":"IA","City":"Essex"},
    {"Longitude":-91.165,"Latitude":42.993,"Name":"Pikes Peak State Park","Phone":"563.873.2341","State":"IA","City":"McGregor"},
    {"Longitude":-93.647,"Latitude":42.783,"Name":"Pikes Timber","Phone":" ","State":"IA","City":"Clarion"},
    {"Longitude":-95.043,"Latitude":41.146,"Name":"Pilot Grove Co Park","Phone":" ","State":"IA","City":"Grant"},
    {"Longitude":-93.561,"Latitude":43.254,"Name":"Pilot Knob State Park","Phone":"641.581.4835","State":"IA","City":"Forest City"},
    {"Longitude":-91.435,"Latitude":42.454,"Name":"Pin Oak Co Park","Phone":" ","State":"IA","City":"Manchester"},
    {"Longitude":-90.529,"Latitude":41.715,"Name":"Pine Grove - Scott County Park","Phone":" ","State":"IA","City":"Long Grove"},
    {"Longitude":-93.078,"Latitude":42.371,"Name":"Pine Lake State Park","Phone":"641.858.5832","State":"IA","City":"Eldora"},
    {"Longitude":-93.07,"Latitude":42.413,"Name":"Pine Ridge - Steamboat Rock","Phone":"641.648.4361","State":"IA","City":"Steamboat Rock"},
    {"Longitude":-95.222,"Latitude":40.744,"Name":"Pioneer City Park","Phone":"712.542.3864","State":"IA","City":"Shenandoah"},
    {"Longitude":-92.68,"Latitude":43.341,"Name":"Pioneer Co Park","Phone":" ","State":"IA","City":"Osage"},
    {"Longitude":-95.93,"Latitude":41.833,"Name":"Pisgah City Park","Phone":" ","State":"IA","City":"Pisgah"},
    {"Longitude":-90.38,"Latitude":42.21,"Name":"Pleasant Creek","Phone":" ","State":"IA","City":"Dubuque"},
    {"Longitude":-91.814,"Latitude":42.119,"Name":"Pleasant Creek State Rec Area","Phone":"319.436.7716","State":"IA","City":"Palo"},
    {"Longitude":-94.198,"Latitude":40.711,"Name":"Poe Hollow County Park","Phone":"641.464.2787","State":"IA","City":"Mount Ayr"},
    {"Longitude":-91.436,"Latitude":40.714,"Name":"Pollmiller Park","Phone":"319.376.2341","State":"IA","City":"West Point"},
    {"Longitude":-95.788,"Latitude":41.071,"Name":"Pony Creek Co Park","Phone":" ","State":"IA","City":"Pacific Juncti"},
    {"Longitude":-93.434,"Latitude":42.585,"Name":"Popejoy Conservation Park","Phone":" ","State":"IA","City":"Popejoy"},
    {"Longitude":-95.338,"Latitude":41.471,"Name":"Pottawattamie County Fairgrounds","Phone":"712.981.7072","State":"IA","City":"Avoca"},
    {"Longitude":-93.057,"Latitude":42.56,"Name":"Prairie Bridges Park","Phone":"641.485.1623","State":"IA","City":"Ackley"},
    {"Longitude":-93.688,"Latitude":41.749,"Name":"Prairie Flower - Saylorville Lake","Phone":"515.984.6925","State":"IA","City":"Des Moines"},
    {"Longitude":-92.888,"Latitude":40.858,"Name":"Prairie Ridge - Rathbun Lake","Phone":"641.724.3103","State":"IA","City":"Moravia"},
    {"Longitude":-95.212,"Latitude":41.6,"Name":"Prairie Rose State Park","Phone":"712.773.2701","State":"IA","City":"Harlan"},
    {"Longitude":-95.623,"Latitude":43.084,"Name":"Primghar City Park","Phone":" ","State":"IA","City":"Primghar"},
    {"Longitude":-91.809,"Latitude":43.299,"Name":"Pulpit Rock City Campground","Phone":"563.382.9551","State":"IA","City":"Decorah"},
    {"Longitude":-92.668,"Latitude":41.198,"Name":"Quercus Wilderness Area","Phone":" ","State":"IA","City":"Oskaloosa"},
    {"Longitude":-94.756,"Latitude":42.228,"Name":"Rainbow Bend Co Park","Phone":" ","State":"IA","City":"Lake City"},
    {"Longitude":-95.731,"Latitude":42.575,"Name":"Ranney Knob Area","Phone":"712.225.6709","State":"IA","City":"Washta"},
    {"Longitude":-93.28,"Latitude":40.998,"Name":"Red Haw State Park","Phone":"641.774.5632","State":"IA","City":"Chariton"},
    {"Longitude":-93.19,"Latitude":42.254,"Name":"Reece Park","Phone":" ","State":"IA","City":"Union"},
    {"Longitude":-95.149,"Latitude":42.438,"Name":"Reiff Park","Phone":" ","State":"IA","City":"Early"},
    {"Longitude":-94.628,"Latitude":42.087,"Name":"Richey Campground","Phone":" ","State":"IA","City":"Glidden"},
    {"Longitude":-91.502,"Latitude":41.491,"Name":"River Junction Access","Phone":" ","State":"IA","City":"Lone Tree"},
    {"Longitude":-96.311,"Latitude":43.213,"Name":"Rivers Bend","Phone":" ","State":"IA","City":"Rock Valley"},
    {"Longitude":-92.777,"Latitude":43.436,"Name":"Riverside Co Park","Phone":"641.732.5204","State":"IA","City":"Stacyville"},
    {"Longitude":-94.669,"Latitude":41.877,"Name":"Riverside Park - Coon Rapids","Phone":"712.792.4614.","State":"IA","City":"Coon Rapids"},
    {"Longitude":-93.813,"Latitude":42.468,"Name":"Riverside Park - Webster City","Phone":"515.832.9193","State":"IA","City":"Webster City"},
    {"Longitude":-90.185,"Latitude":41.852,"Name":"Riverview City Park - Clinton","Phone":"563.243.1260","State":"IA","City":"Clinton"},
    {"Longitude":-92.902,"Latitude":42.064,"Name":"Riverview Park - Marshalltown","Phone":"641.754.5715","State":"IA","City":"Marshalltown"},
    {"Longitude":-92.664,"Latitude":42.47,"Name":"Roadman Roadside Park","Phone":"319.345.2688","State":"IA","City":"Dike"},
    {"Longitude":-93.042,"Latitude":41.426,"Name":"Roberts Creek Park","Phone":"641.627.5507","State":"IA","City":"Pella"},
    {"Longitude":-92.645,"Latitude":41.507,"Name":"Robertson Access","Phone":" ","State":"IA","City":"New Sharon"},
    {"Longitude":-95.736,"Latitude":43.399,"Name":"Robinson Park","Phone":" ","State":"IA","City":"Sibley"},
    {"Longitude":-90.328,"Latitude":41.75,"Name":"Rock Creek County Marina and Campground","Phone":"563.259.1876","State":"IA","City":"Camanche"},
    {"Longitude":-92.837,"Latitude":41.761,"Name":"Rock Creek State Park","Phone":"641.236.3722","State":"IA","City":"Kellogg"},
    {"Longitude":-94.634,"Latitude":42.4,"Name":"Rockwell City RV Park","Phone":" ","State":"IA","City":"Rockwell City"},
    {"Longitude":-92.083,"Latitude":42.196,"Name":"Rodgers County Park","Phone":"319.472.4942","State":"IA","City":"Vinton"},
    {"Longitude":-92.981,"Latitude":40.849,"Name":"Rolling Cove - Rathbun Lake","Phone":"641.647.2464","State":"IA","City":"Centerville"},
    {"Longitude":-95.327,"Latitude":41.732,"Name":"Rosman Glendale Farm Rec Area","Phone":" ","State":"IA","City":"Harlan"},
    {"Longitude":-94.964,"Latitude":40.609,"Name":"Ross County Park","Phone":"712.542.3864","State":"IA","City":"Braddyville"},
    {"Longitude":-91.81,"Latitude":40.914,"Name":"Round Prairie Park","Phone":"641.472.4421","State":"IA","City":"Fairfield"},
    {"Longitude":-92.894,"Latitude":43.127,"Name":"Rudd Eastside Park","Phone":" ","State":"IA","City":"Rudd"},
    {"Longitude":-94.985,"Latitude":42.419,"Name":"Sac City Park","Phone":"712.662.4295","State":"IA","City":"Sac Cityt"},
    {"Longitude":-94.497,"Latitude":40.629,"Name":"Sands Timber Rec Area","Phone":"712.523.2852","State":"IA","City":"Blockton"},
    {"Longitude":-91.597,"Latitude":41.814,"Name":"Sandy Beach - Coralville Lake","Phone":"319.338.3543","State":"IA","City":"Iowa City"},
    {"Longitude":-96.118,"Latitude":43.064,"Name":"Sandy Hollow Park","Phone":"712.722.2491","State":"IA","City":"Sioux Center"},
    {"Longitude":-92.161,"Latitude":43.195,"Name":"Saude Rec Area","Phone":" ","State":"IA","City":"Fredericksburg"},
    {"Longitude":-91.17,"Latitude":41.499,"Name":"Saulsbury Bridge","Phone":"563.264.5922","State":"IA","City":"Muscatine"},
    {"Longitude":-95.672,"Latitude":41.805,"Name":"Schaben County Park","Phone":"712.647.2785","State":"IA","City":"Dunlap"},
    {"Longitude":-95.289,"Latitude":43.151,"Name":"Scharnberg Co Park","Phone":"712.262.2187","State":"IA","City":"Everly"},
    {"Longitude":-95.411,"Latitude":41.775,"Name":"Schimerowski Rec Area","Phone":"712.744.3403","State":"IA","City":"Earling"},
    {"Longitude":-90.527,"Latitude":41.714,"Name":"Scott County Park","Phone":"563.328.3282","State":"IA","City":"Eldridge"},
    {"Longitude":-91.633,"Latitude":42.599,"Name":"Scout Park - Lamont","Phone":"563.924.2194","State":"IA","City":"Lamont"},
    {"Longitude":-93.12,"Latitude":40.67,"Name":"Seymour Lake Co Park","Phone":" ","State":"IA","City":"Seymour"},
    {"Longitude":-90.878,"Latitude":41.446,"Name":"Shady Creek  - Mississippi River","Phone":"563.262.8090","State":"IA","City":"Muscatine"},
    {"Longitude":-92.591,"Latitude":42.723,"Name":"Shell Rock Rec Area","Phone":" ","State":"IA","City":"Shell Rock"},
    {"Longitude":-93.044,"Latitude":43.174,"Name":"Shellrock River Co Preserve","Phone":"641.423.5309","State":"IA","City":"Nora Springs"},
    {"Longitude":-90.784,"Latitude":41.78,"Name":"Sherman Co Park","Phone":" ","State":"IA","City":"Calamus"},
    {"Longitude":-91.677,"Latitude":40.615,"Name":"Shimek State Forest","Phone":"319.878.3811","State":"IA","City":"Farmington"},
    {"Longitude":-94.397,"Latitude":43.053,"Name":"Siems County Park","Phone":"515.295.2138","State":"IA","City":"Whittemore"},
    {"Longitude":-92.143,"Latitude":42.638,"Name":"Siggelkov County Park","Phone":" ","State":"IA","City":"Dunkerton"},
    {"Longitude":-95.326,"Latitude":43.448,"Name":"Silver Lake City Park - East","Phone":"712.832.3588","State":"IA","City":"Lake Park"},
    {"Longitude":-95.35,"Latitude":43.441,"Name":"Silver Lake City Park - South","Phone":"712.832.3588","State":"IA","City":"Lake Park"},
    {"Longitude":-93.42,"Latitude":43.485,"Name":"Silver Lake Co Park","Phone":" ","State":"IA","City":"Northwood"},
    {"Longitude":-91.322,"Latitude":42.426,"Name":"Silver Lake County Park","Phone":" ","State":"IA","City":"Delhi"},
    {"Longitude":-95.591,"Latitude":42.649,"Name":"Silver Sioux Recreation Area","Phone":"712.225.6709","State":"IA","City":"Quimby"},
    {"Longitude":-91.97,"Latitude":41.25,"Name":"Skunk River Access","Phone":" ","State":"IA","City":"Richland"},
    {"Longitude":-93.845,"Latitude":40.653,"Name":"Slip Bluff County Park","Phone":"641.446.7307","State":"IA","City":"Lamoni"},
    {"Longitude":-94.243,"Latitude":43.122,"Name":"Smith Lake County Park","Phone":"515.295.2138","State":"IA","City":"Algona"},
    {"Longitude":-91.111,"Latitude":41.193,"Name":"Snively Access","Phone":"319.523.8381","State":"IA","City":"Wapello"},
    {"Longitude":-96.337,"Latitude":42.284,"Name":"Snyder Bend County Park","Phone":"712.946.5622","State":"IA","City":"Salix"},
    {"Longitude":-94.215,"Latitude":41.079,"Name":"South - Three Mile Co Rec Area","Phone":"641.347.5100","State":"IA","City":"Afton"},
    {"Longitude":-91.672,"Latitude":43.442,"Name":"South Bear Co Park","Phone":" ","State":"IA","City":"Highlandville"},
    {"Longitude":-92.987,"Latitude":42.744,"Name":"South Fork Access  - Dumont Park","Phone":"319.278.4237","State":"IA","City":"Clarksville"},
    {"Longitude":-93.994,"Latitude":43.083,"Name":"South Park - Wesley","Phone":" ","State":"IA","City":"Wesley"},
    {"Longitude":-90.17,"Latitude":42.063,"Name":"South Sabula Lakes County Park","Phone":" ","State":"IA","City":"Maquoketa"},
    {"Longitude":-95.954,"Latitude":42.22,"Name":"Southwood Conservation Area","Phone":"712.889.2215","State":"IA","City":"Smithland"},
    {"Longitude":-92.239,"Latitude":42.909,"Name":"Split Rock County Park","Phone":"641.394.4714","State":"IA","City":"Fredericksburg"},
    {"Longitude":-92.68,"Latitude":42.786,"Name":"Sportsman Park - Clarksville","Phone":"319.278.4237","State":"IA","City":"Clarksville"},
    {"Longitude":-94.21,"Latitude":41.847,"Name":"Sportsman Park - Dawson","Phone":"515.465.3577","State":"IA","City":"Dawson"},
    {"Longitude":-94.291,"Latitude":42.068,"Name":"Spring Lake County Park","Phone":"515.386.5674","State":"IA","City":"Jefferson"},
    {"Longitude":-94.467,"Latitude":41.774,"Name":"Springbrook State Park","Phone":"641.747.3591","State":"IA","City":"Guthrie Center"},
    {"Longitude":-90.436,"Latitude":42.304,"Name":"Spruce Creek County Park","Phone":"563.652.3783","State":"IA","City":"Bellevue"},
    {"Longitude":-91.556,"Latitude":42.02,"Name":"Squaw Creek County Park","Phone":"319.892.6450","State":"IA","City":"Marion"},
    {"Longitude":-94.29,"Latitude":41.95,"Name":"Squirrel Hollow Co Park","Phone":" ","State":"IA","City":"Jefferson"},
    {"Longitude":-93.482,"Latitude":41.022,"Name":"Stephens State Forest","Phone":"641.774.4559","State":"IA","City":"Lucas"},
    {"Longitude":-91.437,"Latitude":40.828,"Name":"Stephenson Park","Phone":"319.986.5067","State":"IA","City":"Lowell"},
    {"Longitude":-95.681,"Latitude":42.609,"Name":"Stieneke Area Park","Phone":"712.225.6709","State":"IA","City":"Quimby"},
    {"Longitude":-92.885,"Latitude":42.394,"Name":"Stoehr Fishing Area","Phone":" ","State":"IA","City":"Grundy"},
    {"Longitude":-96.47,"Latitude":42.557,"Name":"Stone State Park","Phone":"712.255.4698","State":"IA","City":"Sioux City"},
    {"Longitude":-94.848,"Latitude":42.579,"Name":"Straight Park","Phone":" ","State":"IA","City":"Fonda"},
    {"Longitude":-93.931,"Latitude":42.271,"Name":"Stratford City Park","Phone":" ","State":"IA","City":"Stratford"},
    {"Longitude":-91.559,"Latitude":41.776,"Name":"Sugar Bottom - Coralville Lake","Phone":"319.338.3543","State":"IA","City":"Solon"},
    {"Longitude":-90.683,"Latitude":41.529,"Name":"Summit - West Lake County Park","Phone":"563.328.3281","State":"IA","City":"Davenport"},
    {"Longitude":-95.026,"Latitude":41.399,"Name":"Sunnyside Park","Phone":" ","State":"IA","City":"Atlantic"},
    {"Longitude":-95.025,"Latitude":41.398,"Name":"Sunnyside Park Campground","Phone":" ","State":"IA","City":"Atlantic"},
    {"Longitude":-95.175,"Latitude":42.628,"Name":"Sunrise","Phone":"712.732.8023","State":"IA","City":"Storm Lake"},
    {"Longitude":-94.953,"Latitude":42.786,"Name":"Sunset City Park - Albert","Phone":"712.843.5613","State":"IA","City":"Albert City"},
    {"Longitude":-94.846,"Latitude":42.035,"Name":"Swan Lake State Park","Phone":"712.792.4614","State":"IA","City":"Carroll"},
    {"Longitude":-93.855,"Latitude":41.885,"Name":"Swede Point Park","Phone":"515.795.2809","State":"IA","City":"Madrid"},
    {"Longitude":-90.739,"Latitude":42.431,"Name":"Swiss Valley County Park","Phone":"563.556.6745","State":"IA","City":"Dubuque"},
    {"Longitude":-92.422,"Latitude":42.225,"Name":"T. F. Clark Co Park","Phone":" ","State":"IA","City":"Traer"},
    {"Longitude":-91.528,"Latitude":41.72,"Name":"Tailwater  - Coralville Lake","Phone":"319.338.3543","State":"IA","City":"Iowa City"},
    {"Longitude":-94.072,"Latitude":41.021,"Name":"Thayer Lake Rec Area","Phone":"641.782.7111","State":"IA","City":"Thayer"},
    {"Longitude":-93.378,"Latitude":41.643,"Name":"Thomas Mitchell County Park","Phone":"515.967.4889","State":"IA","City":"Mitchellville"},
    {"Longitude":-93.756,"Latitude":43.262,"Name":"Thorpe Park","Phone":" ","State":"IA","City":"Forest City"},
    {"Longitude":-91.874,"Latitude":42.456,"Name":"Three Elms County Park","Phone":" ","State":"IA","City":"Independence"},
    {"Longitude":-94.213,"Latitude":41.085,"Name":"Three Mile Rec Area","Phone":"641.782.7111","State":"IA","City":"Afton"},
    {"Longitude":-92.536,"Latitude":42.631,"Name":"Thunder Woman Park","Phone":" ","State":"IA","City":"Janesville"},
    {"Longitude":-93.001,"Latitude":42.088,"Name":"Timmons Grove County Park","Phone":"641.752.5490","State":"IA","City":"Marshalltown"},
    {"Longitude":-95.616,"Latitude":43.07,"Name":"Tjossem County Park","Phone":"712.295.7200","State":"IA","City":"Primghar"},
    {"Longitude":-93.07,"Latitude":42.401,"Name":"Tower Rock - Steamboat Rock","Phone":"641.648.4361","State":"IA","City":"Steamboat Rock"},
    {"Longitude":-91.716,"Latitude":42.318,"Name":"Troy Mills Wapsi Access","Phone":" ","State":"IA","City":"Quasqueton"},
    {"Longitude":-91.385,"Latitude":42.403,"Name":"Turtle Creek County Park","Phone":"563.927.3410","State":"IA","City":"Manchester"},
    {"Longitude":-94.614,"Latitude":43.489,"Name":"Tuttle Lake Park","Phone":"712.260.6697","State":"IA","City":"Dolliver"},
    {"Longitude":-91.881,"Latitude":42.818,"Name":"Twin Bridges County Park","Phone":"563.927.3410","State":"IA","City":"Maynard"},
    {"Longitude":-92.389,"Latitude":43.014,"Name":"Twin Ponds Co Park  - East","Phone":"641.394.4714","State":"IA","City":"Ionia"},
    {"Longitude":-92.395,"Latitude":43.009,"Name":"Twin Ponds Co Park  - West","Phone":"641.394.4714","State":"IA","City":"Ionia"},
    {"Longitude":-92.725,"Latitude":42.125,"Name":"Union Grove State Park","Phone":"641.473.2556","State":"IA","City":"Gladbrook"},
    {"Longitude":-92.569,"Latitude":41.457,"Name":"Union Mills Access","Phone":" ","State":"IA","City":"New Sharon"},
    {"Longitude":-94.543,"Latitude":42.252,"Name":"University 40","Phone":" ","State":"IA","City":"Lohrville"},
    {"Longitude":-91.29,"Latitude":40.772,"Name":"Upper Augusta Skunk River Access","Phone":" ","State":"IA","City":"Augusta"},
    {"Longitude":-92.137,"Latitude":43.348,"Name":"Vernon Springs Turkey River County Park","Phone":"563.547.3634","State":"IA","City":"Vernon Springs"},
    {"Longitude":-91.765,"Latitude":42.393,"Name":"Veterans Memorial County Park","Phone":"319.934.3340","State":"IA","City":"Quasqueton"},
    {"Longitude":-91.378,"Latitude":40.392,"Name":"Victory Park","Phone":"319.524.7122","State":"IA","City":"Keokuk"},
    {"Longitude":-95.043,"Latitude":40.964,"Name":"Viking Lake State Park","Phone":"712.829.2235","State":"IA","City":"Stanton"},
    {"Longitude":-91.32,"Latitude":41.142,"Name":"Virginia Grove Rec Area","Phone":"319.523.8381","State":"IA","City":"Morning Sun"},
    {"Longitude":-91.758,"Latitude":42.866,"Name":"Volga River  State Rec Area","Phone":" ","State":"IA","City":"Fayette"},
    {"Longitude":-95.23,"Latitude":40.658,"Name":"Wabash Trace Park","Phone":" ","State":"IA","City":"Coin"},
    {"Longitude":-91.523,"Latitude":42.192,"Name":"Wakpicada Natural Area","Phone":"319.438.6616","State":"IA","City":"Central City"},
    {"Longitude":-92.991,"Latitude":41.4,"Name":"Wallashuck - Red Rock Lake","Phone":"641.828.7522","State":"IA","City":"Pella"},
    {"Longitude":-90.863,"Latitude":41.91,"Name":"Walnut Grove Co Park","Phone":" ","State":"IA","City":"Toronto"},
    {"Longitude":-93.747,"Latitude":41.538,"Name":"Walnut Woods State Park","Phone":"515.285.4502","State":"IA","City":"West Des Moines"},
    {"Longitude":-91.193,"Latitude":41.187,"Name":"Wapello Fairgrounds Park","Phone":"319.523.4091","State":"IA","City":"Wapello"},
    {"Longitude":-91.292,"Latitude":42.1,"Name":"Wapsipinicon State Park","Phone":"319.462.2761","State":"IA","City":"Anamosa"},
    {"Longitude":-91.622,"Latitude":40.939,"Name":"Water Works Park","Phone":"319.986.5067","State":"IA","City":"Mount Pleasant"},
    {"Longitude":-91.619,"Latitude":40.938,"Name":"Waterworks Park - Oakland Mills Park","Phone":"319.986.5067","State":"IA","City":"Mt.Pleasant"},
    {"Longitude":-95.682,"Latitude":40.681,"Name":"Waubonsie State Park","Phone":"712.382.2786","State":"IA","City":"Hamburg"},
    {"Longitude":-92.076,"Latitude":40.646,"Name":"Waubonsie Trail Park","Phone":"319.397.2295","State":"IA","City":"Cantril"},
    {"Longitude":-91.474,"Latitude":43.258,"Name":"Waukon City Park","Phone":"563.568.0081","State":"IA","City":"Waukon"},
    {"Longitude":-91.27,"Latitude":40.757,"Name":"Welter Recreation Park","Phone":"319.753.8260","State":"IA","City":"Augusta"},
    {"Longitude":-92.643,"Latitude":42.636,"Name":"West Fork Forest Access","Phone":" ","State":"IA","City":"Shell Rock"},
    {"Longitude":-92.757,"Latitude":43.165,"Name":"West Idlewild County Campground","Phone":"641.756.3490","State":"IA","City":"Floyd"},
    {"Longitude":-90.688,"Latitude":41.52,"Name":"West Lake County Park","Phone":"563.328.3281","State":"IA","City":"Davenport"},
    {"Longitude":-91.536,"Latitude":41.725,"Name":"West Overlook - Coralville Lake","Phone":"319.338.3543","State":"IA","City":"Iowa City"},
    {"Longitude":-96.185,"Latitude":43.431,"Name":"Westside County Park - Rock Rapids","Phone":"712.472.3456 ","State":"IA","City":"Rock Rapids"},
    {"Longitude":-93.024,"Latitude":41.383,"Name":"Whitebreast - Red Rock Lake","Phone":"641.828.7522","State":"IA","City":"Knoxville"},
    {"Longitude":-91.887,"Latitude":42.194,"Name":"Wildcat Bluff County Park","Phone":"319.472.3318","State":"IA","City":"Urbana"},
    {"Longitude":-92.784,"Latitude":42.75,"Name":"Wilder City Park","Phone":"319.267.2245","State":"IA","City":"Allison"},
    {"Longitude":-93.082,"Latitude":43.204,"Name":"Wilkinson - Pioneer County Park","Phone":"641.423.5309","State":"IA","City":"Rock Falls"},
    {"Longitude":-95.053,"Latitude":41.906,"Name":"Willow Creek City Park - Manning","Phone":"712.655.3131","State":"IA","City":"Manning"},
    {"Longitude":-96.155,"Latitude":42.803,"Name":"Willow Creek Park - Le Mars","Phone":"712.546.8360","State":"IA","City":"Le Mars"},
    {"Longitude":-95.786,"Latitude":41.772,"Name":"Willow Lake County Rec Area - Woodbine","Phone":" ","State":"IA","City":"Woodbine"},
    {"Longitude":-96.01,"Latitude":41.492,"Name":"Wilson Island State Rec Area","Phone":"712.642.2069","State":"IA","City":"Missouri Valle"},
    {"Longitude":-94.545,"Latitude":40.84,"Name":"Wilson Lake County Park","Phone":" ","State":"IA","City":"Lenox"},
    {"Longitude":-91.489,"Latitude":40.642,"Name":"Wilson Lake Park - Fort Madison","Phone":"319.463.7673","State":"IA","City":"Fort Madison"},
    {"Longitude":-94.829,"Latitude":40.73,"Name":"Windmill Lake Co Park","Phone":" ","State":"IA","City":"New Market"},
    {"Longitude":-94.005,"Latitude":41.328,"Name":"Winterset City Park","Phone":" ","State":"IA","City":"Winterset"},
    {"Longitude":-93.18,"Latitude":42.773,"Name":"WKW Conservation Park","Phone":"641.456.4375","State":"IA","City":"Hampton"},
    {"Longitude":-94.705,"Latitude":43.312,"Name":"Wolden Rec Area","Phone":"712.867.4422","State":"IA","City":"Wallingford"},
    {"Longitude":-92.793,"Latitude":42.211,"Name":"Wolf Creek Rec Area","Phone":" ","State":"IA","City":"Grundy Center"},
    {"Longitude":-92.802,"Latitude":42.893,"Name":"Wunsch Memorial Park","Phone":"319.278.4237","State":"IA","City":"Greene"},
    {"Longitude":-93.472,"Latitude":41.551,"Name":"Yellow Banks County Park","Phone":"515.266.1563","State":"IA","City":"Pleasant Hill"},
    {"Longitude":-91.228,"Latitude":43.176,"Name":"Yellow River State Forest","Phone":"563.586.2254","State":"IA","City":"Harpers Ferry"},
    {"Longitude":-95.315,"Latitude":42.03,"Name":"Yellow Smoke Park","Phone":"712.263.2748","State":"IA","City":"Denison"},
    {"Longitude":-92.201,"Latitude":41.378,"Name":"Yenruogis County Park","Phone":" ","State":"IA","City":"Sigourney"},
    {"Longitude":-90.39,"Latitude":40.986,"Name":"Allison Lake Storey","Phone":"309.344.1534","State":"IL","City":"Galesburg"},
    {"Longitude":-90.768,"Latitude":41.438,"Name":"Andalusia Slough - Missssippi River","Phone":"563.263.7913","State":"IL","City":"Davenport"},
    {"Longitude":-90.204,"Latitude":40.195,"Name":"Anderson Lake State Conservation Area","Phone":"309.759.4484","State":"IL","City":"Browning"},
    {"Longitude":-90.052,"Latitude":42.449,"Name":"Apple River Canyon State Park","Phone":"815.745.3302","State":"IL","City":"Apple River"},
    {"Longitude":-90.801,"Latitude":40.453,"Name":"Argyle Lake State Park","Phone":"309.776.3422","State":"IL","City":"Colchester"},
    {"Longitude":-88.91,"Latitude":37.826,"Name":"Arrowhead Lake","Phone":"618.983.3535","State":"IL","City":"Johnston City"},
    {"Longitude":-91.479,"Latitude":40.112,"Name":"Bear Creek - Mississippi River","Phone":"217.222.0918","State":"IL","City":"Marcelline"},
    {"Longitude":-89.976,"Latitude":39.211,"Name":"Beaver Dam State Park","Phone":"217.854.8020","State":"IL","City":"Plainview"},
    {"Longitude":-90.939,"Latitude":41.054,"Name":"Big River State Forest","Phone":"309.374.2496","State":"IL","City":"Keithsburg"},
    {"Longitude":-88.175,"Latitude":41.838,"Name":"Blackwell Forest Preserve","Phone":"630.933.7248 ","State":"IL","City":""},
    {"Longitude":-91.056,"Latitude":41.348,"Name":"Blanchard Island - Mississippi River","Phone":"563.263.7913","State":"IL","City":"Muscatine"},
    {"Longitude":-90.403,"Latitude":42.287,"Name":"Blanding Landing - Mississippi River","Phone":"563.582.0881","State":"IL","City":"Hanover"},
    {"Longitude":-88.614,"Latitude":39.554,"Name":"Bo Wood  - Lake Shelbyville","Phone":"217.774.3951","State":"IL","City":"Sullivan"},
    {"Longitude":-89.236,"Latitude":38.695,"Name":"Boulder  - Lake Carlyle","Phone":"618.594.5253","State":"IL","City":"Carlyle"},
    {"Longitude":-88.884,"Latitude":37.581,"Name":"Buck Ridge  -  Lake Of Egypt","Phone":"618.658.2111/618.253.7114","State":"IL","City":"Ozark"},
    {"Longitude":-88.194,"Latitude":38.1,"Name":"Burrell City Park","Phone":"618.382.9920","State":"IL","City":"Carmi."},
    {"Longitude":-88.244,"Latitude":37.578,"Name":"Camp Cadiz","Phone":"618.658.2111/618.253.7114","State":"IL","City":"Karber's Ridge"},
    {"Longitude":-89.975,"Latitude":40.561,"Name":"Canton Lake","Phone":" ","State":"IL","City":"Canton"},
    {"Longitude":-89.537,"Latitude":40.711,"Name":"Carl Spindler","Phone":"309.699.3549","State":"IL","City":"East Peoria"},
    {"Longitude":-91.152,"Latitude":40.425,"Name":"Carthage City Park","Phone":" ","State":"IL","City":"Carthage"},
    {"Longitude":-88.156,"Latitude":37.469,"Name":"Cave - In - Rock State Park","Phone":"618.289.4325","State":"IL","City":"Cave-In-Rock"},
    {"Longitude":-88.188,"Latitude":42.446,"Name":"Chain OLakes State Park","Phone":"847.587.5512","State":"IL","City":"Spring Grove"},
    {"Longitude":-88.538,"Latitude":38.665,"Name":"Charley Brown City Park","Phone":"618.662.8202","State":"IL","City":"Flora"},
    {"Longitude":-88.788,"Latitude":40.163,"Name":"Clinton Lake  State Rec Area","Phone":"217.935.8722","State":"IL","City":"DeWitt"},
    {"Longitude":-89.261,"Latitude":38.657,"Name":"Coles Creek  - Lake Carlyle","Phone":"618.594.5253","State":"IL","City":"Carlyle"},
    {"Longitude":-89.03,"Latitude":40.642,"Name":"Comlara County Park","Phone":"309.726.2022","State":"IL","City":"Hudson"},
    {"Longitude":-88.759,"Latitude":39.452,"Name":"Coon Creek - Shelbyville Lake","Phone":"217.774.3951","State":"IL","City":"Shelbyville"},
    {"Longitude":-89.12,"Latitude":37.74,"Name":"Crab Orchard  National Wildlife Refuge","Phone":"618.985.4983","State":"IL","City":"Carbondale"},
    {"Longitude":-87.899,"Latitude":39.003,"Name":"Crawford County Fairgrounds","Phone":" ","State":"IL","City":"Oblong"},
    {"Longitude":-89.361,"Latitude":38.632,"Name":"Dam West  - Lake Carlyle","Phone":"618.594.4410","State":"IL","City":"Carlyle"},
    {"Longitude":-89.839,"Latitude":39.915,"Name":"Deer Park","Phone":"217.632.7983","State":"IL","City":"Petersburg"},
    {"Longitude":-90.942,"Latitude":40.959,"Name":"Delabar State Park","Phone":"309.374.2496","State":"IL","City":"Oquawka"},
    {"Longitude":-88.207,"Latitude":41.377,"Name":"Des Plaines State Conservation Area","Phone":"815.423.5326","State":"IL","City":"Wilmington"},
    {"Longitude":-88.21,"Latitude":41.311,"Name":"Desplaines Conservational Park","Phone":"815.423.5326","State":"IL","City":"Wilmington"},
    {"Longitude":-89.512,"Latitude":37.639,"Name":"Devils Backbone Park","Phone":" ","State":"IL","City":"Grand Tower"},
    {"Longitude":-89.111,"Latitude":37.644,"Name":"Devils Kitchen","Phone":"618.457.5004","State":"IL","City":"Makanda"},
    {"Longitude":-88.666,"Latitude":37.383,"Name":"Dixon Springs State Park","Phone":"618.949.3394","State":"IL","City":"Golconda"},
    {"Longitude":-89.226,"Latitude":37.984,"Name":"Du Quoin State Fair Campground","Phone":" ","State":"IL","City":"Du Quoin"},
    {"Longitude":-88.71,"Latitude":39.501,"Name":"Eagle Creek State Park","Phone":"217.756.8260","State":"IL","City":"Findlay"},
    {"Longitude":-89.327,"Latitude":38.663,"Name":"Eldon Hazlet State Park","Phone":"618.594.3015","State":"IL","City":"Carlyle"},
    {"Longitude":-88.881,"Latitude":39.866,"Name":"Faries Park","Phone":" ","State":"IL","City":"Decatur"},
    {"Longitude":-88.966,"Latitude":37.533,"Name":"Ferne Clyffe State Park","Phone":"618.995.2411","State":"IL","City":"Goreville"},
    {"Longitude":-90.396,"Latitude":41.567,"Name":"Fishermans Corner - Mississippi River","Phone":"309.496.2720","State":"IL","City":"Hampton"},
    {"Longitude":-87.564,"Latitude":40.01,"Name":"Forest Glen County Preserve","Phone":"217.662.2142","State":"IL","City":"Danville"},
    {"Longitude":-89.147,"Latitude":36.987,"Name":"Fort Defiance State Park","Phone":" ","State":"IL","City":"Cairo"},
    {"Longitude":-89.909,"Latitude":37.969,"Name":"Fort Kaskaskia State Park","Phone":"618.859.3741","State":"IL","City":"Ellis Grove"},
    {"Longitude":-88.707,"Latitude":37.147,"Name":"Fort Massac State Park","Phone":"618.524.4712","State":"IL","City":"Metropolis"},
    {"Longitude":-88.135,"Latitude":39.403,"Name":"Fox Ridge State Park","Phone":"217.345.6416","State":"IL","City":"Charleston"},
    {"Longitude":-89.86,"Latitude":41.28,"Name":"Francis City Park","Phone":"309.852.0511","State":"IL","City":"Kewanee"},
    {"Longitude":-88.781,"Latitude":40.031,"Name":"Friends Creek Regional Park","Phone":"217.795.2031","State":"IL","City":"Cisco"},
    {"Longitude":-90.077,"Latitude":40.463,"Name":"Fulton County Rec Area","Phone":"309.668.2931","State":"IL","City":"St David"},
    {"Longitude":-89.194,"Latitude":37.604,"Name":"Giant City State Park","Phone":"618.457.4836","State":"IL","City":""},
    {"Longitude":-88.373,"Latitude":39.457,"Name":"Gibson City Park","Phone":" ","State":"IL","City":""},
    {"Longitude":-88.485,"Latitude":37.375,"Name":"Golconda Marina ","Phone":"618.683.5875","State":"IL","City":"Golconda"},
    {"Longitude":-87.831,"Latitude":42.321,"Name":"Great Lakes Naval Military","Phone":"847.688.5417","State":"IL","City":"North Chicago"},
    {"Longitude":-90.867,"Latitude":39.426,"Name":"Great River Road Campground","Phone":"217.734.2113","State":"IL","City":"Pleasant Hill"},
    {"Longitude":-89.516,"Latitude":41.631,"Name":"Green River State Wildlife Area","Phone":"815.379.2324","State":"IL","City":"Harmon"},
    {"Longitude":-88.931,"Latitude":38.078,"Name":"Gun Creek -   Rend Lake","Phone":"618.724.2493","State":"IL","City":"Benton"},
    {"Longitude":-88.401,"Latitude":38.056,"Name":"Hamilton County State Conservation Area","Phone":"618.773.4340","State":"IL","City":"McLeansboro"},
    {"Longitude":-90.982,"Latitude":40.85,"Name":"Henderson County State Conservation","Phone":"309.374.2496","State":"IL","City":"Keithsburg"},
    {"Longitude":-89.714,"Latitude":41.399,"Name":"Hennepin Canal Parkway State Park","Phone":"815.454.2328","State":"IL","City":"Sheffield"},
    {"Longitude":-88.689,"Latitude":39.317,"Name":"Hidden Springs State Forest","Phone":"217.644.3091","State":"IL","City":"Strasburg"},
    {"Longitude":-87.986,"Latitude":38.25,"Name":"Hilltop Campground - Grayville","Phone":"618.375.3671","State":"IL","City":"Grayville"},
    {"Longitude":-89.045,"Latitude":42.439,"Name":"Hononegah Forest Preserve","Phone":"815.877.6100","State":"IL","City":"Rockton"},
    {"Longitude":-90.066,"Latitude":38.699,"Name":"Horseshoe Lake Recreation Area","Phone":"618.931.0270","State":"IL","City":"East St. Louis"},
    {"Longitude":-89.331,"Latitude":37.118,"Name":"Horseshoe Lake State Conservation Area - Cairo","Phone":"618.776.5689","State":"IL","City":"Miller City"},
    {"Longitude":-88.716,"Latitude":41.322,"Name":"Illini State Park","Phone":"815.795.2448 ","State":"IL","City":"Marseilles"},
    {"Longitude":-90.403,"Latitude":41.565,"Name":"Illiniwek Campground","Phone":" ","State":"IL","City":"Hampton"},
    {"Longitude":-87.807,"Latitude":42.434,"Name":"Illinois Beach State Park","Phone":"847.662.6433","State":"IL","City":"Zion"},
    {"Longitude":-90.074,"Latitude":39.996,"Name":"Jim Edgar Panther Creek WA","Phone":"217.452.7741","State":"IL","City":"Chandlerville"},
    {"Longitude":-89.521,"Latitude":37.834,"Name":"Johnson Creek","Phone":"618.253.7114/618.253.7114","State":"IL","City":"Murphysboro"},
    {"Longitude":-89.891,"Latitude":41.33,"Name":"Johnson Sauk Trail State Park","Phone":"309.853.5589","State":"IL","City":"Kewanee"},
    {"Longitude":-89.797,"Latitude":40.824,"Name":"Jubilee College State Park","Phone":"309.446.3758","State":"IL","City":"Brimfield"},
    {"Longitude":-88.477,"Latitude":39.711,"Name":"Jurgens City Park","Phone":"217.543.2294","State":"IL","City":"Arthur"},
    {"Longitude":-90.609,"Latitude":39.299,"Name":"Kampsville River Park","Phone":" ","State":"IL","City":"Kampsville"},
    {"Longitude":-87.979,"Latitude":41.204,"Name":"Kankakee River State Park","Phone":"815.933.1383","State":"IL","City":"Bourbonnais"},
    {"Longitude":-90.943,"Latitude":41.098,"Name":"Keithsburg Riverside Campground","Phone":"309.374.9070","State":"IL","City":"Keithsburg"},
    {"Longitude":-87.753,"Latitude":40.139,"Name":"Kickapoo State Park","Phone":"217.442.4915","State":"IL","City":"Oakwood"},
    {"Longitude":-89.831,"Latitude":42.422,"Name":"Lake - Le - Aqua - Na State Park","Phone":"815.369.4282","State":"IL","City":"Lena"},
    {"Longitude":-89.316,"Latitude":41.324,"Name":"Lake De Pue City Park","Phone":"815.447.2177","State":"IL","City":"De Pue"},
    {"Longitude":-89.612,"Latitude":39.195,"Name":"Lake Lou Yaeger","Phone":" ","State":"IL","City":"Litchfield"},
    {"Longitude":-88.471,"Latitude":39.346,"Name":"Lake Mattoon Campground East","Phone":"217.234.3611","State":"IL","City":"Mattoon"},
    {"Longitude":-88.47,"Latitude":39.359,"Name":"Lake Mattoon Campground West","Phone":"217.234.3611","State":"IL","City":"Mattoon"},
    {"Longitude":-89.383,"Latitude":37.779,"Name":"Lake Murphysboro State Park","Phone":"618.684.2867","State":"IL","City":"Murphysboro"},
    {"Longitude":-89.262,"Latitude":39.525,"Name":"Lake Taylorville City Campground","Phone":"217.824.5606","State":"IL","City":"Taylorville"},
    {"Longitude":-87.719,"Latitude":39.339,"Name":"Lincoln Trail State Park","Phone":"217.826.2222","State":"IL","City":"Marshall"},
    {"Longitude":-89.845,"Latitude":39.981,"Name":"Lincolns New Salem Historic Site","Phone":"217.632.4003","State":"IL","City":"Petersburg"},
    {"Longitude":-88.76,"Latitude":39.434,"Name":"Lithia Springs - Shelbyville Lake","Phone":"217.774.3951","State":"IL","City":"Shelbyville"},
    {"Longitude":-89.162,"Latitude":37.644,"Name":"Little Grassy Lake - Crab Orchard NWR","Phone":"618.985.4983","State":"IL","City":"Makanda"},
    {"Longitude":-88.665,"Latitude":40.892,"Name":"Livingston County 4-H Park","Phone":"815.822.3997","State":"IL","City":"Pontiac"},
    {"Longitude":-90.154,"Latitude":41.898,"Name":"Lock and Dam 13 - Mississippi River","Phone":" ","State":"IL","City":"Fulton"},
    {"Longitude":-88.739,"Latitude":39.455,"Name":"Lone Point - Lake Shelbyville","Phone":"217.774.3951","State":"IL","City":"Shelbyville"},
    {"Longitude":-89.323,"Latitude":42.033,"Name":"Lowden Memorial State Park","Phone":"815.732.6828","State":"IL","City":"Oregon"},
    {"Longitude":-88.6,"Latitude":42.285,"Name":"Marengo Ridge County Park","Phone":" ","State":"IL","City":"Marengo"},
    {"Longitude":-87.813,"Latitude":39.448,"Name":"Mill Creek Park","Phone":"217.889.3601","State":"IL","City":"Marshall"},
    {"Longitude":-90.164,"Latitude":42.144,"Name":"Mississippi Palisades State Park","Phone":"815.273.2731","State":"IL","City":"Savanna"},
    {"Longitude":-88.728,"Latitude":40.413,"Name":"Moraine View State Park","Phone":"309.724.8032","State":"IL","City":"LeRoy"},
    {"Longitude":-89.967,"Latitude":41.841,"Name":"Morrison Rockwood State Park","Phone":"815.772.4708","State":"IL","City":"Morrison"},
    {"Longitude":-91.384,"Latitude":40.544,"Name":"Nauvoo State Park","Phone":"217.453.2512","State":"IL","City":"Nauvoo"},
    {"Longitude":-89.001,"Latitude":38.069,"Name":"North Sandusky - Rend Lake","Phone":"618.724.2493","State":"IL","City":"Benton"},
    {"Longitude":-88.661,"Latitude":37.409,"Name":"Oak Point   -   Lake Glendale","Phone":"618.658.2111/618.253.7114","State":"IL","City":"Vienna"},
    {"Longitude":-88.023,"Latitude":39.659,"Name":"Oakland City Park","Phone":" ","State":"IL","City":"Oakland"},
    {"Longitude":-87.902,"Latitude":39.004,"Name":"Oblong Park","Phone":" ","State":"IL","City":"Oblong"},
    {"Longitude":-88.773,"Latitude":39.445,"Name":"Opossum Creek - Shelbyville Lake","Phone":"217.774.3951","State":"IL","City":"Shelbyville"},
    {"Longitude":-87.695,"Latitude":39.634,"Name":"Paris City Park","Phone":" ","State":"IL","City":"Paris"},
    {"Longitude":-88.36,"Latitude":42.071,"Name":"Paul Wolff Campground - Burnidge Wolff Preserve","Phone":"630.444.1200","State":"IL","City":"Close to RR"},
    {"Longitude":-89.321,"Latitude":42.362,"Name":"Pecatonica River Forest Preserve","Phone":"815.877.6100","State":"IL","City":"Pecatonica"},
    {"Longitude":-90.542,"Latitude":38.977,"Name":"Pere Marquette State Park","Phone":"618.786.3323","State":"IL","City":"Grafton"},
    {"Longitude":-88.379,"Latitude":37.603,"Name":"Pharoah  -  Garden Of The Gods","Phone":"618.658.2111/618.253.7114","State":"IL","City":"Harrisburg"},
    {"Longitude":-89.422,"Latitude":37.516,"Name":"Pine Hills","Phone":"618.833.8576/618.253.7114","State":"IL","City":"Jonesboro"},
    {"Longitude":-88.267,"Latitude":37.615,"Name":"Pine Ridge  -  Pounds Hollow","Phone":"618.658.2111/618.253.7114","State":"IL","City":"Karber's Ridge"},
    {"Longitude":-90.761,"Latitude":39.644,"Name":"Pittsfield City Lake","Phone":"217.285.4484","State":"IL","City":"Pittsfield"},
    {"Longitude":-88.15,"Latitude":40.284,"Name":"Prairie Pines Campground","Phone":" ","State":"IL","City":"Rantoul"},
    {"Longitude":-89.926,"Latitude":41.672,"Name":"Prophetstown State Park","Phone":"815.537.2926","State":"IL","City":"Prophetstown"},
    {"Longitude":-89.425,"Latitude":38.005,"Name":"Pyramid State Park","Phone":"618.357.2574","State":"IL","City":"Pinckneyville"},
    {"Longitude":-90.408,"Latitude":39.306,"Name":"Rainey City Park","Phone":" ","State":"IL","City":"Carrollton"},
    {"Longitude":-89.125,"Latitude":39.159,"Name":"Ramsey Lake State Park","Phone":"618.423.2215","State":"IL","City":"Ramsey"},
    {"Longitude":-89.805,"Latitude":37.972,"Name":"Randolph County State Conservation Area","Phone":"618.826.2706","State":"IL","City":"Chester"},
    {"Longitude":-87.836,"Latitude":38.73,"Name":"Red Hills Lake State Park","Phone":"618.936.2469","State":"IL","City":"Sumner"},
    {"Longitude":-88.656,"Latitude":37.523,"Name":"Redbud - Bell Smith Springs","Phone":"618.658.2111/618.253.7114","State":"IL","City":"Ozark"},
    {"Longitude":-89.948,"Latitude":40.478,"Name":"Rice Lake State Conservation Area","Phone":"309.647.9184","State":"IL","City":"Canton"},
    {"Longitude":-90.066,"Latitude":40.301,"Name":"Riverfront City Park - Havana","Phone":"309.543.6240","State":"IL","City":"Havana"},
    {"Longitude":-89.617,"Latitude":39.857,"Name":"Riverside Park","Phone":"217.789.2353","State":"IL","City":"Springfield"},
    {"Longitude":-87.742,"Latitude":38.997,"Name":"Robinson City Park","Phone":"618.544.3834","State":"IL","City":"Robinson"},
    {"Longitude":-88.978,"Latitude":42.37,"Name":"Rock Cut State Park","Phone":"815.885.3311","State":"IL","City":"Loves Park"},
    {"Longitude":-88.39,"Latitude":37.693,"Name":"Saline County State Conservation Area","Phone":"618.276.4405","State":"IL","City":"Equality"},
    {"Longitude":-88.591,"Latitude":38.543,"Name":"Sam Dale Lake Conservation Area","Phone":"618.835.2292","State":"IL","City":"Johnsonville"},
    {"Longitude":-88.122,"Latitude":39.016,"Name":"Sam Parr State Park","Phone":"618.783.2661","State":"IL","City":"Newton"},
    {"Longitude":-89.866,"Latitude":40.411,"Name":"Sand Ridge State Forest - Forest City","Phone":"309.597.2212","State":"IL","City":"Topeka"},
    {"Longitude":-89.488,"Latitude":39.655,"Name":"Sangchris Lake State Park","Phone":"217.498.9208","State":"IL","City":"Rochester"},
    {"Longitude":-90.553,"Latitude":40.083,"Name":"Schuy - Rush Park","Phone":" ","State":"IL","City":"Rushville"},
    {"Longitude":-89.841,"Latitude":38.551,"Name":"Scott AFB Military","Phone":"618.256.2067","State":"IL","City":"Belleville"},
    {"Longitude":-89.368,"Latitude":42.276,"Name":"Seward Bluffs Forest Preserve","Phone":"815.877.6100","State":"IL","City":"Seward"},
    {"Longitude":-88.87,"Latitude":41.761,"Name":"Shabbona Lake State Park","Phone":"815.824.2106","State":"IL","City":"Shabbona"},
    {"Longitude":-90.878,"Latitude":41.448,"Name":"Shady Creek - Mississippi River","Phone":"319.262.8090","State":"IL","City":"Muscatine"},
    {"Longitude":-89.471,"Latitude":39.179,"Name":"Sherwood Forest","Phone":"217 .532.5211","State":"IL","City":"Hillsboro"},
    {"Longitude":-90.955,"Latitude":39.896,"Name":"Siloam Springs State Park","Phone":"217.894.6205","State":"IL","City":"Clayton"},
    {"Longitude":-88.373,"Latitude":40.457,"Name":"South City (Gibson) Park","Phone":" ","State":"IL","City":"Gibson City"},
    {"Longitude":-88.936,"Latitude":38.035,"Name":"South Marcum  - Rend Lake","Phone":"618.724.2493","State":"IL","City":"Benton"},
    {"Longitude":-89.006,"Latitude":38.059,"Name":"South Sandusky -  Rend Lake","Phone":"618.724.2493","State":"IL","City":"Benton"},
    {"Longitude":-90.67,"Latitude":40.476,"Name":"Spring Lake Park - Macomb","Phone":"309.833.2052","State":"IL","City":"Macomb"},
    {"Longitude":-89.847,"Latitude":40.474,"Name":"Spring Lake State Conservation Area","Phone":"309.968.7135","State":"IL","City":"Manito"},
    {"Longitude":-89.011,"Latitude":41.321,"Name":"Starved Rock State Park","Phone":"815.667.4726","State":"IL","City":"Utica"},
    {"Longitude":-88.763,"Latitude":38.72,"Name":"Stephen A. Forbes State Park","Phone":"618.547.3381","State":"IL","City":"Kinmundy"},
    {"Longitude":-89.235,"Latitude":42.464,"Name":"Sugar River Forest Preserve","Phone":"815.877.6100","State":"IL","City":"Durand"},
    {"Longitude":-88.641,"Latitude":37.542,"Name":"Teal Pond","Phone":" ","State":"IL","City":""},
    {"Longitude":-90.117,"Latitude":41.949,"Name":"Thomson Causeway -  Mississippi River","Phone":"815.259.3628","State":"IL","City":"Thomson"},
    {"Longitude":-88.233,"Latitude":37.459,"Name":"Tower Rock","Phone":"618.658.2111/618.253.7114","State":"IL","City":"Harrisburg"},
    {"Longitude":-89.359,"Latitude":37.482,"Name":"Trail of Tears State Forest","Phone":"618.833.4910","State":"IL","City":"Jonesboro"},
    {"Longitude":-89.413,"Latitude":37.686,"Name":"Turkey Bayou","Phone":"618.687.1731","State":"IL","City":"Murphysboro"},
    {"Longitude":-88.038,"Latitude":39.697,"Name":"Walnut Point State Park","Phone":"217.346.3336","State":"IL","City":"Oakland"},
    {"Longitude":-91.446,"Latitude":40.355,"Name":"Warsaw City Campground","Phone":" ","State":"IL","City":"Warsaw"},
    {"Longitude":-89.363,"Latitude":38.28,"Name":"Washington County Lake State Conservation Area","Phone":"618.327.3137","State":"IL","City":"Nashville"},
    {"Longitude":-90.012,"Latitude":39.6,"Name":"Waverly Lake City Park","Phone":" ","State":"IL","City":"Waverly"},
    {"Longitude":-88.934,"Latitude":38.111,"Name":"Wayne Fitzgerrell State Park","Phone":"618.629.2320","State":"IL","City":"Whittington"},
    {"Longitude":-90.898,"Latitude":40.233,"Name":"Weinberg - King State Park","Phone":"217.392.2345","State":"IL","City":"Augusta"},
    {"Longitude":-88.924,"Latitude":40.117,"Name":"Weldon Springs State Park","Phone":"217.935.2644","State":"IL","City":"Clinton"},
    {"Longitude":-89.007,"Latitude":38.068,"Name":"West Sandusky - Rend Lake","Phone":"618.724.2493","State":"IL","City":"Sesser"},
    {"Longitude":-89.475,"Latitude":41.993,"Name":"White Pines Forest State Park","Phone":"815.946.3717","State":"IL","City":"Polo"},
    {"Longitude":-88.626,"Latitude":39.535,"Name":"Whitley Creek - Lake Shelbyville","Phone":"217.774.3951","State":"IL","City":"Sullivan"},
    {"Longitude":-89.796,"Latitude":42.497,"Name":"Winslow Community Park","Phone":"815.367.2110","State":"IL","City":"Winslow"},
    {"Longitude":-88.687,"Latitude":39.477,"Name":"Wolf Creek State Park","Phone":"217.459.2831","State":"IL","City":"Windsor"},
    {"Longitude":-89.437,"Latitude":40.878,"Name":"Woodford State Conservation Area","Phone":" ","State":"IL","City":"Low Point"},
    {"Longitude":-86.578,"Latitude":41.221,"Name":"Bass Lake State Beach","Phone":"574.772.3382","State":"IN","City":"Knox"},
    {"Longitude":-85.251,"Latitude":41.444,"Name":"Bixler Lake City Campground","Phone":"260.347.9941","State":"IN","City":"Kendallville"},
    {"Longitude":-84.998,"Latitude":39.436,"Name":"Brookville Lake","Phone":"765.647.2657","State":"IN","City":"Brookville"},
    {"Longitude":-86.271,"Latitude":39.177,"Name":"Brown County State Park","Phone":"812.988.6406","State":"IN","City":"Nashville"},
    {"Longitude":-86.097,"Latitude":38.41,"Name":"Buffalo Trace Co Park","Phone":"812.364.6112","State":"IN","City":"Palmyra"},
    {"Longitude":-87.64,"Latitude":37.944,"Name":"Burdette Park","Phone":"812.435.5602","State":"IN","City":"Evansville"},
    {"Longitude":-86.027,"Latitude":39.355,"Name":"Camp Atterbury Military","Phone":"812.526.1298","State":"IN","City":"Edinburgh"},
    {"Longitude":-87.458,"Latitude":39.944,"Name":"Cayuga Park Campground","Phone":" ","State":"IN","City":"Cayuga"},
    {"Longitude":-86.604,"Latitude":38.199,"Name":"Celina Recreation Area","Phone":"812.547.7051/812.275.5987","State":"IN","City":"Bristow"},
    {"Longitude":-85.402,"Latitude":41.341,"Name":"Chain OLakes State Park","Phone":"260.636.2654","State":"IN","City":"Albion"},
    {"Longitude":-85.646,"Latitude":38.449,"Name":"Charlestown State Park","Phone":"812.256.5600","State":"IN","City":"Charlestown"},
    {"Longitude":-85.939,"Latitude":38.546,"Name":"Clark State Forest","Phone":"812.294.4306","State":"IN","City":"Henryville"},
    {"Longitude":-85.418,"Latitude":38.76,"Name":"Clifty Falls State Park","Phone":"812.273.8885","State":"IN","City":"Madison"},
    {"Longitude":-86.821,"Latitude":38.877,"Name":"Crane MWR Military","Phone":"812.854.1176","State":"IN","City":"Crane"},
    {"Longitude":-85.865,"Latitude":38.46,"Name":"Deam Lake  State Rec Area","Phone":"812.246.5421","State":"IN","City":"Borden"},
    {"Longitude":-86.404,"Latitude":40.608,"Name":"Deer Creek Co Park","Phone":"574.652.3114","State":"IN","City":"Camden"},
    {"Longitude":-86.041,"Latitude":38.725,"Name":"Delaney Creek Park","Phone":"812.883.5101","State":"IN","City":"Salem"},
    {"Longitude":-86.885,"Latitude":38.317,"Name":"Dubois County Park","Phone":"812.482.2434","State":"IN","City":"Huntingburg"},
    {"Longitude":-86.983,"Latitude":41.671,"Name":"Dunewood - Indiana Dunes National Lakeshore","Phone":"219.395.8914","State":"IN","City":"Chesterton"},
    {"Longitude":-87.417,"Latitude":40.687,"Name":"Earl Park Rest Area","Phone":"219.474.6108","State":"IN","City":"Fowler"},
    {"Longitude":-85.809,"Latitude":41.58,"Name":"Elkhart County Fairgrounds","Phone":"574.533.3247","State":"IN","City":"Goshen"},
    {"Longitude":-86.783,"Latitude":38.257,"Name":"Ferdinand State Forest","Phone":"812.367.1524","State":"IN","City":"Ferdinand"},
    {"Longitude":-87.372,"Latitude":39.334,"Name":"Fowler County Park","Phone":" ","State":"IN","City":"Terre Haute"},
    {"Longitude":-85.019,"Latitude":39.405,"Name":"Franklin County Park","Phone":"765.647.4422","State":"IN","City":"Brookville"},
    {"Longitude":-86.573,"Latitude":40.692,"Name":"French Post Co Park","Phone":"574.652.3114","State":"IN","City":"Logansport"},
    {"Longitude":-86.589,"Latitude":37.952,"Name":"German Ridge","Phone":"812.547.7051/812.275.5987","State":"IN","City":"Cannelton"},
    {"Longitude":-87.041,"Latitude":38.549,"Name":"Glendale State Fish and Wildlife Area","Phone":"812.644.7711","State":"IN","City":"Montgomery"},
    {"Longitude":-87.244,"Latitude":38.994,"Name":"Greene - Sullivan State Forest","Phone":"812.648.2810","State":"IN","City":"Dugger"},
    {"Longitude":-86.431,"Latitude":39.013,"Name":"Hardin Ridge","Phone":"812.275.5987/812.275.5987","State":"IN","City":""},
    {"Longitude":-85.702,"Latitude":38.777,"Name":"Hardy Lake  State Rec Area","Phone":"812.794.3800","State":"IN","City":"Unknown"},
    {"Longitude":-87.944,"Latitude":38.09,"Name":"Harmone State Park","Phone":"812.682.4821","State":"IN","City":"New Harmony"},
    {"Longitude":-87.323,"Latitude":39.49,"Name":"Hawthorne County Park","Phone":"219.921.1687","State":"IN","City":"Terre Haute"},
    {"Longitude":-85.973,"Latitude":39.3,"Name":"Heflen Co Park","Phone":"812.526.4154","State":"IN","City":"Edinburgh"},
    {"Longitude":-85.42,"Latitude":41.387,"Name":"Hidden Diamonds City Park","Phone":"260.636.2246","State":"IN","City":"Albion"},
    {"Longitude":-87.959,"Latitude":37.814,"Name":"Hovey Lake State Fish and Wildlife Area","Phone":"812.838.2927","State":"IN","City":"Mt.Vernon"},
    {"Longitude":-87.063,"Latitude":41.657,"Name":"Indiana Dunes State Park","Phone":"219.926.1952","State":"IN","City":"Chesterton"},
    {"Longitude":-85.969,"Latitude":39.361,"Name":"Irwin City Park","Phone":"812.526.3535","State":"IN","City":"Edinburgh"},
    {"Longitude":-86.021,"Latitude":38.86,"Name":"Jackson - Washington State Forest","Phone":" ","State":"IN","City":""},
    {"Longitude":-85.119,"Latitude":41.112,"Name":"Johnny Appleseed Park","Phone":"260.427.6720","State":"IN","City":"Fort Wayne"},
    {"Longitude":-86.043,"Latitude":39.38,"Name":"Johnson County Park","Phone":"812.526.6809","State":"IN","City":"Edinburgh."},
    {"Longitude":-85.436,"Latitude":40.843,"Name":"Kil-So-Quah - J. Edward Roush Lake","Phone":"260.468.2165","State":"IN","City":"Huntington"},
    {"Longitude":-87.517,"Latitude":38.698,"Name":"Kimmell City Park","Phone":"812.882.1140","State":"IN","City":"Vincennes"},
    {"Longitude":-85.837,"Latitude":41.235,"Name":"Kosciusko County Fairgrounds","Phone":"574.269.1823","State":"IN","City":"Warsaw"},
    {"Longitude":-85.471,"Latitude":40.893,"Name":"Lake Clare Park Camp","Phone":"260.356.5218","State":"IN","City":"Huntington"},
    {"Longitude":-87.079,"Latitude":39.891,"Name":"Lake Waveland Park","Phone":"765.435.2073","State":"IN","City":"Waveland"},
    {"Longitude":-86.875,"Latitude":39.487,"Name":"Lieber  State Rec Area","Phone":"765.795.4576","State":"IN","City":"Cloverdale"},
    {"Longitude":-86.996,"Latitude":38.104,"Name":"Lincoln State Park","Phone":"812.937.4710","State":"IN","City":"Lincoln City"},
    {"Longitude":-87.539,"Latitude":38.683,"Name":"Lincoln Trail","Phone":"217.826.2222","State":"IN","City":""},
    {"Longitude":-85.629,"Latitude":40.768,"Name":"Lost Bridge State Rec Area - Salamonie Lake","Phone":"260.468.2125","State":"IN","City":"Andrews"},
    {"Longitude":-87.329,"Latitude":38.193,"Name":"Lynnville Park","Phone":"812.922.5144","State":"IN","City":"Lynnville"},
    {"Longitude":-85.365,"Latitude":38.732,"Name":"Madison City Park","Phone":"812.265.8333","State":"IN","City":"Madison"},
    {"Longitude":-86.722,"Latitude":38.697,"Name":"Martin State Forest","Phone":"812.247.3491","State":"IN","City":"Shoals"},
    {"Longitude":-86.372,"Latitude":39.375,"Name":"Mason Ridge - Morgan Monroe State Forest","Phone":"765.342.4026","State":"IN","City":"Martinsville"},
    {"Longitude":-86.726,"Latitude":39.283,"Name":"McCormicks Creek State Park","Phone":"812.829.2235","State":"IN","City":"Spencer"},
    {"Longitude":-85.94,"Latitude":40.703,"Name":"Mississinewa Lake - Miami Recreation Area","Phone":"765.473.6528","State":"IN","City":"Peru"},
    {"Longitude":-87.041,"Latitude":38.669,"Name":"Montgomery Rec Park","Phone":"812.486.3255","State":"IN","City":"Montgomery"},
    {"Longitude":-86.422,"Latitude":39.335,"Name":"Morgan - Monroe State Forest","Phone":"765.342.4026","State":"IN","City":"Martinsville"},
    {"Longitude":-84.973,"Latitude":39.488,"Name":"Mounds  State Rec Area - Brookville Lake","Phone":"765.647.2657","State":"IN","City":"Brookville"},
    {"Longitude":-85.616,"Latitude":40.106,"Name":"Mounds State Park","Phone":"765.642.6627","State":"IN","City":"Anderson"},
    {"Longitude":-85.582,"Latitude":40.745,"Name":"Mt. Etna  State Rec Area","Phone":" ","State":"IN","City":"Andrews"},
    {"Longitude":-85.616,"Latitude":38.99,"Name":"Muscatatuck","Phone":"812.346.2953","State":"IN","City":"North Vernon"},
    {"Longitude":-86.658,"Latitude":38.4,"Name":"Newton Stewart  State Rec Area - Patoka Lake","Phone":"812.685.2464","State":"IN","City":"Birdseye"},
    {"Longitude":-86.29,"Latitude":38.196,"Name":"OBannon Woods State Park","Phone":"812.738.8232","State":"IN","City":"Corydon"},
    {"Longitude":-85.123,"Latitude":40.725,"Name":"Ouabache State Park","Phone":"260.824.0926","State":"IN","City":"Bluffton"},
    {"Longitude":-87.508,"Latitude":38.724,"Name":"Ouabache Trails County Park","Phone":"812.882.4316","State":"IN","City":"Vincennes"},
    {"Longitude":-86.844,"Latitude":39.316,"Name":"Owen Putnam State Forest","Phone":"812.829.2462","State":"IN","City":"Spencer"},
    {"Longitude":-85.064,"Latitude":38.745,"Name":"Paul Ogle Riverfront Park","Phone":"800.435.5688","State":"IN","City":"Vevay"},
    {"Longitude":-86.439,"Latitude":39.083,"Name":"Paynetown  State Rec Area - Monroe Lake","Phone":"812.837.9546","State":"IN","City":""},
    {"Longitude":-85.271,"Latitude":41.681,"Name":"Pigeon River State Fish and Wildlife Area","Phone":"260.367.2164","State":"IN","City":"Mongo"},
    {"Longitude":-85.842,"Latitude":41.246,"Name":"Pike Lake County Campground","Phone":"219.269.1439","State":"IN","City":"Warsaw"},
    {"Longitude":-87.157,"Latitude":38.36,"Name":"Pike State Forest","Phone":"812.367.1524","State":"IN","City":"Winslow"},
    {"Longitude":-85.022,"Latitude":41.708,"Name":"Pokagon State Park","Phone":"260.833.2012","State":"IN","City":"Angola"},
    {"Longitude":-86.35,"Latitude":41.537,"Name":"Potato Creek State Park","Phone":"574.656.8186","State":"IN","City":"North Liberty"},
    {"Longitude":-87.469,"Latitude":39.285,"Name":"Prairie Creek County Park","Phone":"812.462.3367","State":"IN","City":"Terre Haute"},
    {"Longitude":-85.28,"Latitude":40.139,"Name":"Prairie Creek Park","Phone":"812.462.3392","State":"IN","City":"Muncie"},
    {"Longitude":-87.255,"Latitude":38.486,"Name":"Prides Creek Co Park","Phone":"812.354.6798","State":"IN","City":"Petersburg"},
    {"Longitude":-86.832,"Latitude":40.503,"Name":"Prophetstown State Park","Phone":"756.567.4919","State":"IN","City":"Battle Ground"},
    {"Longitude":-85.002,"Latitude":39.581,"Name":"Quakertown  State Rec Area - Brookville Lake","Phone":"765. 647.2657","State":"IN","City":"Brookville"},
    {"Longitude":-87.075,"Latitude":39.734,"Name":"Raccoon - Cecil M. Harden Lake","Phone":"765.344.1412","State":"IN","City":"Rockville"},
    {"Longitude":-86.85,"Latitude":39.399,"Name":"Rattlesnake - Owen Putnam State Forest","Phone":" ","State":"IN","City":"Vandalia"},
    {"Longitude":-87.241,"Latitude":39.017,"Name":"Res 26 - Greene - Sullivan State Forest","Phone":"812.648.2810","State":"IN","City":"Dugger"},
    {"Longitude":-86.412,"Latitude":39.263,"Name":"Riddle Point Park on Lake Lemon","Phone":" ","State":"IN","City":"Unionville"},
    {"Longitude":-87.218,"Latitude":39.782,"Name":"Rockville Lake County Park","Phone":"765.569.6541","State":"IN","City":"Rockville"},
    {"Longitude":-87.076,"Latitude":40.405,"Name":"Ross Camp","Phone":"765.463.2306","State":"IN","City":"West Lafayette"},
    {"Longitude":-86.661,"Latitude":38.062,"Name":"Saddle Lake Rec Area","Phone":"812.547.7051/812.275.5987","State":"IN","City":"Tell City"},
    {"Longitude":-85.629,"Latitude":40.768,"Name":"Salamonie State Lake - Lost Bridge West SRA","Phone":"260.782.2181","State":"IN","City":"Lagro"},
    {"Longitude":-87.255,"Latitude":38.059,"Name":"Scales Lake Park","Phone":"812.897.6200","State":"IN","City":"Boonville"},
    {"Longitude":-87.076,"Latitude":39.931,"Name":"Shades State Park","Phone":"765.435.2810","State":"IN","City":"Waveland"},
    {"Longitude":-87.232,"Latitude":39.165,"Name":"Shakamak State Park","Phone":"812.665.2158","State":"IN","City":"Jasonville"},
    {"Longitude":-86.019,"Latitude":38.07,"Name":"South Harrison Co Park","Phone":"812.738.8236","State":"IN","City":"Elizabeth"},
    {"Longitude":-86.412,"Latitude":38.733,"Name":"Spring Mill State Park","Phone":"812.849.4129","State":"IN","City":"Mitchell"},
    {"Longitude":-86.564,"Latitude":38.485,"Name":"Springs Valley Rec Area","Phone":"812.547.7051/812.275.5987","State":"IN","City":"Paoli"},
    {"Longitude":-86.077,"Latitude":38.817,"Name":"Starve Hollow  State Rec Area","Phone":"812.358.3464","State":"IN","City":"Vallonia"},
    {"Longitude":-85.034,"Latitude":41.668,"Name":"Steuben County Park","Phone":"260.833.2401","State":"IN","City":"Angola"},
    {"Longitude":-87.394,"Latitude":39.104,"Name":"Sullivan County Park","Phone":"812.268.6251","State":"IN","City":"Sullivan"},
    {"Longitude":-85.303,"Latitude":40.026,"Name":"Summit Lake State Park","Phone":"765.766.5873","State":"IN","City":"New Castle"},
    {"Longitude":-87.142,"Latitude":39.054,"Name":"Sunset City Park","Phone":" ","State":"IN","City":"Linton"},
    {"Longitude":-86.477,"Latitude":38.316,"Name":"Sycamore Springs Park","Phone":"812.338.3846","State":"IN","City":"English"},
    {"Longitude":-86.578,"Latitude":41.107,"Name":"Tippecanoe River State Park","Phone":"574.946.3213","State":"IN","City":"Winamac"},
    {"Longitude":-86.643,"Latitude":38.134,"Name":"Tipsaw","Phone":"812.547.7051/812.275.5987","State":"IN","City":"Saint Croix"},
    {"Longitude":-87.202,"Latitude":39.882,"Name":"Turkey Run State Park","Phone":"765.597.2635","State":"IN","City":"Marshall"},
    {"Longitude":-87.56,"Latitude":38.092,"Name":"Vanderburgh 4H Campground","Phone":"812.867.6217","State":"IN","City":"Evansville"},
    {"Longitude":-85.229,"Latitude":39.078,"Name":"Versailles State Park","Phone":"812.689.6424","State":"IN","City":"Milan"},
    {"Longitude":-86.679,"Latitude":40.593,"Name":"Wabash and Erie Canal Park","Phone":"765.564.2870","State":"IN","City":"Delphi"},
    {"Longitude":-85.824,"Latitude":40.791,"Name":"Wabash City RV Park","Phone":" ","State":"IN","City":"Wabash"},
    {"Longitude":-86.928,"Latitude":38.736,"Name":"West Boggs Park","Phone":"812.295.3421","State":"IN","City":"Loogootee"},
    {"Longitude":-85.438,"Latitude":39.904,"Name":"Westwood Park","Phone":"765.987.1232","State":"IN","City":"New Castle"},
    {"Longitude":-85.969,"Latitude":40.124,"Name":"White River Campground","Phone":"317.984.2705","State":"IN","City":"Cicero"},
    {"Longitude":-84.942,"Latitude":39.612,"Name":"Whitewater Memorial State Park","Phone":"765.458.5565","State":"IN","City":"Liberty"},
    {"Longitude":-87.517,"Latitude":40.971,"Name":"Willow Slough State Fish and Wildlife Area","Phone":"219.285.2704","State":"IN","City":"Morocco"},
    {"Longitude":-86.339,"Latitude":39.186,"Name":"Yellowwood State Forest","Phone":"812.988.7945","State":"IN","City":"Nashville"},
    {"Longitude":-95.582,"Latitude":38.673,"Name":"110 Mile Park - Pomona Reservoir","Phone":"785.453.2201","State":"KS","City":"Overbrook"},
    {"Longitude":-97.657,"Latitude":39.546,"Name":"Airport Park","Phone":"765.243.1150","State":"KS","City":"Concordia"},
    {"Longitude":-98.049,"Latitude":37.175,"Name":"Anthony City Lake","Phone":"620.842.5434","State":"KS","City":"Anthony"},
    {"Longitude":-97.764,"Latitude":37.247,"Name":"Argonia River Park","Phone":"620.435.6553","State":"KS","City":"Argonia"},